     3.04           OBSERVATION DATA    M                   RINEX VERSION / TYPE
sbf2rin-15.4.0                          20220816 164556 UTC PGM / RUN BY / DATE 
SEPT                                                        MARKER NAME         
Unknown                                                     MARKER NUMBER       
Unknown             Unknown                                 OBSERVER / AGENCY   
Unknown             Unknown             Unknown             REC # / TYPE / VERS 
Unknown             Unknown                                 ANT # / TYPE        
 -2042541.3836 -4151535.3876  4376600.2339                  APPROX POSITION XYZ 
        0.0000        0.0000        0.0000                  ANTENNA: DELTA H/E/N
G    6 C1C L1C C2W L2W C2L L2L                              SYS / # / OBS TYPES 
E    6 C1C L1C C5Q L5Q C7Q L7Q                              SYS / # / OBS TYPES 
R    4 C1C L1C C2C L2C                                      SYS / # / OBS TYPES 
C    2 C2I L2I                                              SYS / # / OBS TYPES 
J    2 C1C L1C                                              SYS / # / OBS TYPES 
SEPTENTRIO RECEIVERS OUTPUT ALIGNED CARRIER PHASES.         COMMENT             
NO FURTHER PHASE SHIFT APPLIED IN THE RINEX ENCODER.        COMMENT             
G L1C                                                       SYS / PHASE SHIFT   
G L2W                                                       SYS / PHASE SHIFT   
G L2L  0.00000                                              SYS / PHASE SHIFT   
E L1C  0.00000                                              SYS / PHASE SHIFT   
E L5Q  0.00000                                              SYS / PHASE SHIFT   
E L7Q  0.00000                                              SYS / PHASE SHIFT   
R L1C                                                       SYS / PHASE SHIFT   
R L2C                                                       SYS / PHASE SHIFT   
C L2I                                                       SYS / PHASE SHIFT   
J L1C                                                       SYS / PHASE SHIFT   
     1.000                                                  INTERVAL            
  2022     8    16    16    24   17.0000000     GPS         TIME OF FIRST OBS   
  2022     8    16    16    30    7.0000000     GPS         TIME OF LAST OBS    
    35                                                      # OF SATELLITES     
 C1C    0.000 C2C    0.000                                  GLONASS COD/PHS/BIS 
    18                                                      LEAP SECONDS        
  8 R02 -4 R03  5 R09 -2 R15  0 R17  4 R18 -3 R19  3 R24  2 GLONASS SLOT / FRQ #
                                                            END OF HEADER       
> 2022 08 16 16 24 17.0000000  0  5
E12  19451238.239 6 102216947.12406                                  19451238.336 5  78322067.45905
E31  20636295.563 6 108444463.90706  20636300.647 6  80981276.70506  20636298.272 6  83093819.75506
G05  15767833.464 5  82860523.05705  15767833.716 5  64566642.91305  15767834.503 6  64566647.92506
G25  17243060.816 6  90612894.14606  17243063.800 4  70607463.44704  17243063.161 6  70607459.51906
G29  15832506.540 6  83200384.91006  15832506.787 6  64831468.89106  15832506.805 6  64831467.96806
> 2022 08 16 16 24 18.0000000  0  6
E12  19451100.280 6 102216222.15306  19451100.160 6  76330292.98816  19451101.657 6  78321512.11406
E31  20636836.146 6 108447302.43006  20636840.726 6  80983396.31506  20636839.249 7  83095994.69207
G05  15767913.926 6  82860946.29306  15767914.249 4  64566972.69504  15767914.469 7  64566977.62807
G13  20127870.142 5
G25  17243681.254 7  90616155.41807  17243684.408 4  70610004.72804  17243683.710 6  70610000.69306
G29  15832390.372 7  83199776.11707  15832390.937 6  64830994.53906  15832391.035 7  64830993.54107
> 2022 08 16 16 24 19.0000000  0  6
E12  19450962.608 6 102215497.96906  19450962.371 7  76329752.20507  19450963.372 7  78320957.23007
E31  20637376.283 6 108450141.96306  20637381.407 6  80985516.77606  20637380.070 7  83098170.45807
G05  15767994.822 6  82861370.65706  15767995.003 4  64567303.32204  15767995.369 7  64567308.30607
G13  20127369.727 5
G25  17244301.307 7  90619417.84607  17244305.163 4  70612546.88204  17244304.183 6  70612542.84506
G29  15832274.620 7  83199168.24107  15832275.233 6  64830520.88206  15832275.202 7  64830519.90307
> 2022 08 16 16 24 20.0000000  0  8
E12  19450825.401 7 102214774.97307  19450824.739 7  76329212.29107  19450825.141 7  78320403.23407
E31  20637916.839 6 108452982.85506  20637922.205 6  80987638.27806  20637920.805 7  83100347.28907
G05  15768075.911 6  82861796.76206  15768076.086 4  64567635.33204  15768076.471 7  64567640.27407
G12  19630930.391 6 103161235.15716
G13  20126869.737 4
G15  20223869.236 6 106277149.23416
G25  17244922.241 7  90622681.66007  17244926.150 4  70615090.12504  17244924.393 6  70615086.20006
G29  15832159.444 8  83198561.80508  15832159.798 6  64830048.34306  15832159.713 7  64830047.35107
> 2022 08 16 16 24 21.0000000  0 13
C20  19694748.592 8 102555719.98218
C29  18316338.033 7  95377977.27917
C30  17049333.946 8  88780355.03918
C32  18352754.455 7  95567608.09617
E12  19450688.001 6 102214053.09706  19450687.358 7  76328673.22207  19450687.585 7  78319850.09607
E31  20638457.497 6 108455824.89506  20638463.017 6  80989760.60706  20638461.224 7  83102524.99407
E33                                  19419519.994 6  76206367.89816  19419518.120 7  78194352.09817
G05  15768157.299 6  82862224.45906  15768157.492 4  64567968.57904  15768157.888 7  64567973.58807
G12  19631741.749 6 103165497.19906
G13  20126372.430 5
G15  20223274.058 6 106274020.95806
G25  17245543.707 7  90625946.84107  17245547.415 4  70617634.47004  17245545.565 6  70617630.48506
G29  15832044.218 7  83197956.75507  15832044.641 6  64829576.88106  15832044.490 7  64829575.87907
> 2022 08 16 16 24 22.0000000  0 13
C20  19694198.086 7 102552845.82807
C29  18316037.996 7  95376414.56707
C30  17049532.294 8  88781388.35108
C32  18352683.124 7  95567236.38407
E12  19450550.613 7 102213331.42907  19450549.945 7  76328134.28107  19450550.253 7  78319297.11507
E31  20638998.510 6 108458667.53906  20639003.808 7  80991883.20007  20639002.052 7  83104703.00007
E33                                  19419803.325 7  76207480.33507  19419801.844 7  78195493.57507
G05  15768239.010 6  82862652.89306  15768239.028 4  64568302.42104  15768239.380 7  64568307.42007
G12  19632553.228 6 103169759.40206
G13  20125875.611 5
G15  20222677.226 5 106270892.29505
G25  17246165.176 7  90629212.66707  17246168.783 4  70620179.28304  17246166.927 6  70620175.16806
G29  15831929.299 8  83197352.12908  15831929.555 6  64829105.74506  15831929.581 7  64829104.75107
> 2022 08 16 16 24 23.0000000  0 12
C29  18315737.973 7  95374852.22907
C30  17049730.839 8  88782422.11908
C32  18352612.132 7  95566865.50907
E12  19450413.226 7 102212610.13007  19450412.666 7  76327595.67907  19450413.034 7  78318744.47307
E31  20639539.364 6 108461510.35206  20639544.916 7  80994006.10307  20639543.134 7  83106881.26707
E33  19420083.651 5 102053222.65515  19420086.732 7  76208593.04407  19420085.644 7  78196635.29607
G05  15768320.655 6  82863082.21806  15768320.720 4  64568636.96404  15768320.883 7  64568641.96407
G12  19633364.045 6 103174021.73806
G13  20125379.672 6
G15  20222081.132 5
G25  17246786.833 7  90632478.84407  17246790.164 4  70622724.31104  17246788.616 6  70622720.20306
G29  15831814.418 7  83196748.14807  15831814.594 6  64828635.11406  15831814.619 7  64828634.12807
> 2022 08 16 16 24 24.0000000  0 12
C29  18315438.088 7  95373290.37207
C30  17049929.388 8  88783456.51308
C32  18352541.002 7  95566495.50907
E12  19450276.023 7 102211889.40107  19450275.451 7  76327057.46007  19450275.881 8  78318192.21708
E31  20640080.577 6 108464353.94806  20640086.142 7  80996129.54107  20640084.472 7  83109060.10807
E33  19420367.169 5 102054713.12005  19420370.273 7  76209706.10507  19420369.396 7  78197777.40207
G05  15768402.586 6  82863512.56906  15768402.631 4  64568972.30604  15768402.800 7  64568977.31307
G12  19634175.501 6 103178284.56906                                  19634144.939 5  80398542.06015
G13  20124883.241 5
G15  20221485.275 3
G25  17247408.652 7  90635745.84307  17247411.670 4  70625269.98404  17247410.654 6  70625265.92706
G29  15831699.688 7  83196144.94107  15831699.785 6  64828165.09106  15831699.850 7  64828164.09007
> 2022 08 16 16 24 25.0000000  0 12
C29  18315138.368 7  95371728.86707
C30  17050128.073 8  88784491.37308
C32  18352470.037 7  95566126.27407
E12  19450138.847 7 102211169.03207  19450138.339 7  76326519.52107  19450138.825 8  78317640.24008
E31  20640621.792 7 108467197.96107  20640627.418 7  80998253.32207  20640625.786 7  83111239.28207
E33  19420650.675 5 102056204.01305  19420653.902 7  76210819.40207  19420653.092 7  78198919.73107
G05  15768484.611 6  82863943.82106  15768484.690 4  64569308.34704  15768484.692 7  64569313.34607
G12  19634987.149 7 103182547.65307                                  19634956.212 5  80401863.94805
G13  20124386.064 5 105754362.15715
G15  20220888.425 4
G25  17248030.526 7  90639013.40507  17248033.280 4  70627816.11904  17248032.661 6  70627812.05306
G29  15831585.108 7  83195542.32007  15831585.079 6  64827695.51706  15831585.203 7  64827694.52307
> 2022 08 16 16 24 26.0000000  0 12
C29  18314838.607 7  95370166.96807
C30  17050326.755 8  88785525.93708
C32  18352399.107 7  95565757.05607
E12  19450001.868 7 102210448.22907  19450001.142 7  76325981.24507  19450001.719 7  78317087.92207
E31  20641163.014 7 108470041.70807  20641168.620 7  81000376.92707  20641167.131 7  83113418.29707
E33  19420934.636 5 102057694.49105  19420937.461 7  76211932.35907  19420936.873 7  78200061.72807
G05  15768566.775 6  82864375.15506  15768566.726 4  64569644.44504  15768566.784 7  64569649.45307
G12  19635798.280 7 103186810.35207                                  19635767.177 5  80405185.37705
G13  20123889.799 6 105751752.79906
G15  20220292.429 5
G25  17248652.285 7  90642280.83307  17248654.929 4  70630362.15104  17248654.446 6  70630358.11306
G29  15831470.426 8  83194939.52308  15831470.341 6  64827225.80606  15831470.490 7  64827224.82407
> 2022 08 16 16 24 27.0000000  0 17
C29  18314538.829 7  95368605.40107
C30  17050525.477 8  88786560.97208
C32  18352328.334 7  95565388.56307
E12  19449864.896 7 102209727.79507  19449864.054 7  76325443.29507  19449864.624 8  78316535.94408
E31  20641704.458 7 108472885.87807  20641709.958 7  81002500.82207  20641708.422 7  83115597.58107
E33  19421218.215 5 102059185.15405  19421221.134 7  76213045.58307  19421220.585 7  78201204.00807
G05  15768649.015 6  82864807.43506  15768648.959 4  64569981.28604  15768648.970 7  64569986.28907
G12  19636609.294 6 103191073.03406                                  19636578.213 5  80408507.10905
G13  20123393.088 5 105749143.77305
G15  20219698.061 3
G25  17249274.306 7  90645548.78107  17249276.699 4  70632908.60204  17249276.193 6  70632904.57206
G29  15831355.889 7  83194337.41607  15831355.738 6  64826756.63406  15831355.777 7  64826755.63107
R02  15890368.734 7  84794048.87617  15890374.329 7  65950948.80717
R03  18047226.233 6  96608170.14716  18047223.171 6  75139722.88516
R15  17843456.478 6  95350032.62616  17843464.320 6  74161147.17516
R17  15188802.166 8  81278347.06318  15188805.368 6  63216508.39816
R18  15851611.541 7  84616983.77517  15851617.870 7  65813234.62217
> 2022 08 16 16 24 28.0000000  0 17
C29  18314238.906 7  95367044.18907
C30  17050724.309 8  88787596.44708
C32  18352257.832 7  95565020.86707
E12  19449727.756 7 102209007.78907  19449726.979 7  76324905.62907  19449727.621 7  78315984.22407
E31  20642245.793 7 108475730.59407  20642251.296 7  81004625.08407  20642249.831 7  83117777.29307
E33  19421501.226 5 102060676.24805  19421504.830 7  76214159.03207  19421504.394 7  78202346.49707
G05  15768731.569 6  82865240.56106  15768731.313 4  64570318.78404  15768731.487 7  64570323.76907
G12  19637419.919 7 103195336.12307                                  19637390.051 5  80411829.02905
G13  20122896.698 5 105746535.01705
G15  20219105.276 4
G25  17249896.256 7  90648817.35307  17249898.581 4  70635455.53104  17249898.628 6  70635451.51206
G29  15831241.375 8  83193735.87108  15831241.229 6  64826287.89806  15831241.316 7  64826286.88107
R02  15890120.993 7  84792727.57007  15890126.856 7  65949921.11007
R03  18046491.823 5  96604238.40105  18046487.947 6  75136664.90906
R15  17844265.582 6  95354358.81406  17844273.071 6  74164511.96206
R17  15189052.296 8  81279685.83308  15189055.676 6  63217549.72006
R18  15851356.448 7  84615621.47807  15851362.652 7  65812175.06407
> 2022 08 16 16 24 29.0000000  0 16
C29  18313939.141 7  95365483.07907
C30  17050923.176 8  88788632.17508
C32  18352187.219 7  95564653.65507
E12  19449590.695 7 102208287.86307  19449589.996 7  76324368.02207  19449590.695 7  78315432.60707
E31  20642787.187 7 108478575.53307  20642792.653 7  81006749.55807  20642791.372 7  83119957.18207
E33  19421785.084 5 102062167.40205  19421788.589 7  76215272.57607  19421788.320 7  78203489.09507
G05  15768814.280 6  82865674.32706  15768813.806 4  64570656.78204  15768813.983 7  64570661.77307
G12  19638231.315 7 103199599.21207                                  19638201.899 5  80415150.90905
G13  20122400.652 6 105743926.29906
G25  17250518.291 7  90652086.28607  17250520.566 5  70638002.74405  17250520.481 6  70637998.72506
G29  15831127.006 8  83193134.70708  15831126.800 6  64825819.45506  15831126.934 7  64825818.45007
R02  15889873.368 7  84791407.02807  15889879.745 7  65948894.04507
R03  18045755.803 6  96600306.72006  18045753.662 6  75133606.97906
R15  17845074.905 6  95358685.11306  17845081.322 6  74167876.85606
R17  15189302.402 8  81281024.92308  15189306.391 6  63218591.22106
R18  15851101.405 7  84614259.44207  15851107.430 7  65811115.69407
> 2022 08 16 16 24 30.0000000  0 17
C20  19689815.899 7 102529862.49207
C29  18313639.131 7  95363921.62107
C30  17051122.011 8  88789667.63708
C32  18352116.679 7  95564286.49707
E12  19449453.425 7 102207567.60907  19449452.899 7  76323830.18107  19449453.650 7  78314880.72507
E31  20643328.614 7 108481420.24907  20643334.017 7  81008873.85307  20643332.802 7  83122136.90007
E33  19422069.135 6 102063658.21006  19422072.278 7  76216385.82707  19422072.137 7  78204631.39107
G05  15768896.392 6  82866108.27806  15768896.339 4  64570994.92504  15768896.364 7  64570999.90107
G12  19639042.643 7 103203861.84107                                  19639013.800 5  80418472.43305
G13  20121904.347 6 105741317.17006
G25  17251140.343 7  90655355.10607  17251142.546 5  70640549.87405  17251142.471 6  70640545.86106
G29  15831012.609 7  83192533.43007  15831012.344 6  64825350.92506  15831012.418 7  64825349.92607
R02  15889625.962 7  84790086.80307  15889632.250 7  65947867.20007
R03  18045019.957 6  96596374.74506  18045019.032 6  75130548.78906
R15  17845884.117 6  95363011.14506  17845890.100 6  74171241.56006
R17  15189552.549 8  81282363.81808  15189556.436 6  63219632.58706
R18  15850846.191 7  84612897.10207  15850852.185 7  65810056.10307
> 2022 08 16 16 24 31.0000000  0 18
C20  19689264.554 7 102526990.31507
C29  18313339.439 7  95362360.63307
C30  17051320.989 8  88790703.69408
C32  18352046.274 7  95563920.23807
E12  19449316.496 7 102206847.85407  19449315.926 7  76323292.69407  19449316.709 7  78314329.22607
E31  20643870.111 7 108484265.58907  20643875.467 7  81010998.62307  20643874.278 7  83124317.08607
E33  19422353.107 5 102065149.42905  19422356.008 7  76217499.43407  19422356.051 7  78205774.04407
G05  15768979.413 6  82866543.22106  15768979.073 4  64571333.83704  15768979.038 7  64571338.81807
G12  19639853.724 7 103208124.86207                                  19639824.988 5  80421794.26505
G13  20121408.144 6 105738708.46906
G15  20217321.448 3
G25  17251762.463 7  90658624.65007  17251764.674 5  70643097.57205  17251764.739 7  70643093.55507
G29  15830898.275 7  83191932.90207  15830898.045 6  64824882.98206  15830898.032 7  64824881.97707
R02  15889378.734 7  84788767.72907  15889384.986 7  65946841.26207
R03  18044283.608 6  96592443.31406  18044284.428 6  75127491.00506
R15  17846693.135 6  95367337.74006  17846699.575 6  74174606.67806
R17  15189802.966 8  81283703.34108  15189806.845 6  63220674.42606
R18  15850590.989 7  84611535.31607  15850597.122 7  65808996.93407
> 2022 08 16 16 24 32.0000000  0 17
C20  19688712.928 7 102524118.58007
C29  18313039.770 7  95360800.09307
C30  17051520.131 8  88791740.33008
C32  18351976.055 7  95563554.82307
E12  19449179.581 7 102206128.58007  19449178.991 7  76322755.57407  19449179.857 7  78313778.09107
E31  20644411.678 7 108487111.50207  20644417.002 7  81013123.80607  20644415.881 7  83126497.71907
E33  19422636.849 5 102066641.10505  19422639.863 7  76218613.35707  19422639.953 7  78206917.01807
G05  15769062.095 6  82866979.12606  15769061.981 4  64571673.49804  15769061.933 7  64571678.51107
G12  19640665.346 6 103212388.23206                                  19640636.066 6  80425116.34506
G13  20120911.772 6 105736100.13406
G25  17252384.823 7  90661894.91007  17252386.927 5  70645645.82205  17252386.840 7  70645641.80207
G29  15830784.136 8  83191333.06808  15830783.871 6  64824415.58006  15830783.904 7  64824414.58107
R02  15889131.663 7  84787449.77607  15889138.006 7  65945816.19007
R03  18043547.286 6  96588512.33406  18043550.209 6  75124433.58106
R15  17847502.723 6  95371664.87606  17847508.847 6  74177972.24806
R17  15190053.449 8  81285043.44208  15190057.444 6  63221716.71606
R18  15850336.186 7  84610174.07207  15850342.088 7  65807938.19107
> 2022 08 16 16 24 33.0000000  0 17
C20  19688161.015 7 102521246.99707
C29  18312740.044 7  95359239.66107
C30  17051719.296 8  88792777.16508
C32  18351905.795 7  95563189.93507
E12  19449042.652 7 102205409.42307  19449042.123 7  76322218.53207  19449043.014 7  78313227.04407
E31  20644953.283 7 108489957.64507  20644958.608 7  81015249.17907  20644957.494 7  83128678.52107
E33  19422920.707 5 102068132.91805  19422923.669 7  76219727.33707  19422923.862 7  78208060.06507
G05  15769145.133 6  82867415.69106  15769145.019 4  64572013.68404  15769145.108 7  64572018.69607
G12  19641476.970 6 103216651.63206                                  19641447.464 6  80428438.46706
G13  20120415.736 6 105733491.83606
G25  17253007.189 7  90665165.49307  17253009.256 5  70648194.32605  17253009.225 7  70648190.29607
G29  15830670.031 8  83190733.60708  15830669.769 6  64823948.46906  15830669.667 7  64823947.46507
R02  15888884.834 7  84786132.58707  15888891.291 7  65944791.71707
R03  18042810.878 6  96584581.46906  18042815.764 6  75121376.28406
R15  17848312.320 6  95375992.24306  17848318.461 5  74181337.95505
R17  15190304.009 8  81286383.75508  15190307.823 6  63222759.18506
R18  15850081.233 7  84608813.02407  15850086.794 6  65806879.60506
> 2022 08 16 16 24 34.0000000  0 18
C20  24484297.242 7 127495989.17607
C29  23109124.416 7 120335271.95907
C30  21848594.523 8 113771365.30508
C32  23148516.185 7 120540399.05107
E12  24245587.383 7 127411421.54107  24245586.776 7  95144889.93007  24245587.596 7  97626924.63907
E31  25442165.564 7 133699478.13307  25442170.823 7  99840540.44707  25442169.732 7 102445064.35007
E33  24219879.354 5 127276320.54005  24219882.158 7  95044023.30107  24219882.529 7  97523424.62507
G05  20565906.109 6 108074565.58006  20565906.106 4  84213948.66504  20565906.185 7  84213953.65907
G12  24438954.890 6 128427566.47606                                  24438925.140 6 100073307.15006
G13  24916607.022 6 130937644.96606
G15  25012216.840 3
G25  22050298.804 7 115875103.74107  22050300.955 5  90292302.04805  22050300.849 7  90292298.01407
G29  20627237.131 8 108396863.76508  20627236.823 6  84465088.85206  20627236.673 7  84465087.84207
R02  20685321.284 7 110380836.87407  20685327.880 7  85851783.93607
R03  22838766.423 6 122257713.30806  22838772.297 6  95089367.72106
R15  22645787.958 6 121012250.21906  22645794.985 5  94120649.72605
R17  19987229.813 8 106955702.56508  19987233.409 6  83187784.94806
R18  20646509.755 7 110212473.59707  20646515.130 6  85720837.82706
> 2022 08 16 16 24 35.0000000  0 19
C20  24483745.256 7 127493117.70107
C29  23108824.674 7 120333711.54207
C30  21848793.614 8 113772402.38708
C32  23148446.235 7 120540034.98207
E12  24245450.572 7 127410702.42907  24245449.944 7  95144352.93407  24245450.698 7  97626373.63807
E24  25088836.544 6 131842725.09516  25088837.188 7  98453986.10217  25088836.391 7 101022347.08417
E31  25442707.181 7 133702324.54307  25442712.433 7  99842666.00507  25442711.322 7 102447245.36507
E33  24220163.360 5 127277812.28905  24220166.034 7  95045137.28107  24220166.342 7  97524567.65407
G05  20565989.156 5 108075003.23905  20565989.368 4  84214289.69304  20565989.486 7  84214294.67907
G12  24439766.256 7 128431829.65307                                  24439736.629 6 100076629.08806
G13  24916111.072 6 130935036.55106
G15  25011619.225 3
G25  22050921.324 7 115878374.79807  22050923.387 5  90294850.91905  22050923.164 7  90294846.89707
G29  20627123.074 8 108396264.82708  20627122.828 6  84464622.14706  20627122.741 7  84464621.14807
R02  20685074.632 7 110379520.99507  20685081.254 7  85850760.47607
R03  22838031.231 6 122253782.49706  22838037.856 6  95086310.43806
R15  22646597.422 6 121016577.81706  22646605.244 6  94124015.66606
R17  19987480.465 8 106957043.25808  19987483.812 6  83188827.71906
R18  20646254.969 7 110211112.70507  20646260.152 6  85719779.35106
> 2022 08 16 16 24 36.0000000  0 19
C20  24483193.583 7 127490247.04507
C29  23108525.171 7 120332151.91007
C30  21848992.968 8 113773440.39108
C32  23148376.414 7 120539672.12607
E12  24245313.923 7 127409984.14807  24245313.270 7  95143816.55007  24245313.987 7  97625823.26407
E24  25088922.001 6 131843174.44006  25088922.708 7  98454321.65907  25088921.916 7 101022691.39407
E31  25443249.022 7 133705171.88207  25443254.222 7  99844792.26807  25443253.092 7 102449427.08907
E33  24220447.531 5 127279304.84205  24220449.969 7  95046251.83407  24220450.315 7  97525711.28507
G05  20566072.848 5 108075442.18205  20566072.875 4  84214631.72304  20566073.131 7  84214636.73207
G12  24440577.669 7 128436093.55907                                  24440547.962 6 100079951.60606
G13  24915614.961 6 130932428.87606
G15  25011024.164 4
G25  22051543.797 7 115881646.91507  22051546.012 5  90297400.62005  22051545.973 7  90297396.60407
G29  20627009.359 8 108395666.96508  20627009.039 6  84464156.28206  20627008.984 7  84464155.28007
R02  20684828.330 7 110378206.59607  20684835.059 7  85849738.16307
R03  22837296.931 6 122249852.52006  22837303.823 6  95083253.80706
R15  22647406.801 6 121020906.34506  22647415.800 6  94127382.28906
R17  19987731.237 8 106958384.92608  19987734.644 6  83189871.22206
R18  20646000.370 7 110209752.71207  20646006.130 6  85718721.58806
> 2022 08 16 16 24 37.0000000  0 19
C20  24482641.934 7 127487376.89807
C29  23108225.797 7 120330592.78007
C30  21849192.409 8 113774478.98408
C32  23148306.816 7 120539310.17007
E12  24245177.439 7 127409266.36507  24245176.686 7  95143280.53807  24245177.378 7  97625273.27607
E24  25089007.642 6 131843624.61106  25089008.326 7  98454657.83007  25089007.614 7 101023036.33107
E31  25443791.079 7 133708019.84007  25443796.196 7  99846918.98907  25443794.995 7 102451609.29607
E33  24220731.874 5 127280797.85305  24220734.076 7  95047366.74207  24220734.404 7  97526855.27507
G05  20566156.641 5 108075882.21605  20566156.575 4  84214974.60504  20566156.993 7  84214979.58407
G12  24441389.207 7 128440357.85307                                  24441359.372 6 100083274.41006
G13  24915118.726 6 130929821.63806
G15  25010428.195 3
G25  22052166.495 7 115884919.75407  22052168.788 5  90299950.87905  22052168.800 7  90299946.86307
G29  20626895.654 8 108395069.85508  20626895.388 6  84463691.00106  20626895.498 7  84463690.00407
R02  20684582.136 7 110376893.35407  20684588.900 7  85848716.75307
R03  22836562.657 6 122245923.11206  22836569.665 6  95080197.61306
R15  22648217.523 6 121025235.43806  22648226.492 6  94130749.37906
R17  19987982.038 8 106959727.23808  19987985.626 6  83190915.23506
R18  20645745.596 7 110208393.34007  20645751.258 6  85717664.29906
> 2022 08 16 16 24 38.0000000  0 19
C20  24482090.331 7 127484506.78107
C29  23107926.368 7 120329033.65607
C30  21849391.941 8 113775517.71708
C32  23148237.333 7 120538948.62707
E12  24245040.977 7 127408548.61707  24245040.100 7  95142744.55207  24245040.789 7  97624723.31307
E24  25089093.220 6 131844075.13106  25089094.074 7  98454994.25107  25089093.380 7 101023381.53207
E31  25444333.133 7 133710867.94607  25444338.188 7  99849045.81107  25444336.925 7 102453791.60107
E33  24221015.922 5 127282290.86905  24221018.219 7  95048481.64707  24221018.519 7  97527999.26507
G05  20566240.570 6 108076322.71706  20566240.369 4  84215317.84504  20566240.960 7  84215322.85507
G12  24442200.706 7 128444622.06207                                  24442170.889 5 100086597.14505
G13  24914622.784 6 130927214.34706
G15  25009835.276 4
G25  22052789.385 7 115888192.84707  22052791.604 5  90302501.33605  22052791.719 7  90302497.32707
G29  20626782.197 8 108394473.01808  20626781.796 6  84463225.93406  20626782.022 7  84463224.93307
R02  20684336.088 7 110375580.79207  20684343.126 7  85847695.86907
R03  22835828.900 6 122241993.76506  22835835.762 6  95077141.45406
R15  22649027.340 6 121029564.70306  22649037.098 6  94134116.56006
R17  19988232.898 8 106961069.71308  19988236.693 6  83191959.37806
R18  20645491.072 7 110207034.04507  20645496.680 6  85716607.06906
> 2022 08 16 16 24 39.0000000  0 19
C20  24481538.892 7 127481636.12007
C29  23107626.843 7 120327473.95407
C30  21849591.325 8 113776555.98308
C32  23148167.734 7 120538586.91507
E12  24244904.349 7 127407830.31207  24244903.417 7  95142208.16807  24244904.114 7  97624172.92007
E24  25089179.099 6 131844525.40006  25089179.772 7  98455330.49107  25089179.079 7 101023726.55007
E31  25444875.026 7 133713715.58707  25444880.080 7  99851172.30407  25444878.794 7 102455973.55507
E33  24221300.335 5 127283783.23905  24221302.269 7  95049596.09607  24221302.501 7  97529142.78207
G05  20566324.624 6 108076763.21806  20566324.145 4  84215661.08704  20566324.721 7  84215666.08107
G12  24443011.994 7 128448885.58107                                  24442981.919 5 100089919.36505
G13  24914126.802 6 130924606.41006
G15  25009243.269 4
G25  22053412.164 7 115891465.59407  22053414.372 5  90305051.52705  22053414.715 7  90305047.52307
G29  20626668.650 8 108393875.85608  20626668.140 6  84462760.61506  20626668.376 7  84462759.61207
R02  20684089.950 7 110374268.29107  20684097.408 7  85846675.02807
R03  22835095.101 6 122238063.82006  22835101.543 6  95074084.84206
R15  22649837.783 6 121033893.51206  22649847.368 6  94137483.39606
R17  19988483.631 8 106962411.75308  19988487.835 6  83193003.20406
R18  20645236.091 7 110205674.24907  20645242.105 6  85715549.44506
> 2022 08 16 16 24 40.0000000  0 18
C20  24480987.672 7 127478765.37807
C29  23107327.322 7 120325914.15907
C30  21849790.753 8 113777594.26708
C32  23148098.402 7 120538225.53107
E12  24244767.624 7 127407111.91907  24244766.699 7  95141671.70507  24244767.408 7  97623622.47007
E24  25089264.780 6 131844975.91406  25089265.486 7  98455666.90707  25089264.775 7 101024071.74007
E31  25445416.956 7 133716563.25707  25445421.974 7  99853298.81207  25445420.681 7 102458155.54507
E33  24221584.367 6 127285275.54006  24221586.286 7  95050710.46907  24221586.445 7  97530286.22907
G05  20566408.661 6 108077204.11406  20566408.006 4  84216004.64104  20566408.588 7  84216009.64607
G12  24443822.890 7 128453148.92907                                  24443792.990 5 100093241.42005
G13  24913630.811 6 130921998.32806
G25  22054035.275 7 115894738.48307  22054037.179 5  90307601.82805  22054037.572 7  90307597.82007
G29  20626555.079 8 108393278.86508  20626554.512 6  84462295.42506  20626554.934 7  84462294.42307
R02  20683844.046 7 110372956.35307  20683851.595 7  85845654.63107
R03  22834361.061 6 122234133.80306  22834367.682 6  95071028.17206
R15  22650647.995 6 121038222.24606  22650657.368 6  94140850.19806
R17  19988734.410 8 106963753.86108  19988738.424 6  83194047.05506
R18  20644981.041 7 110204314.42307  20644987.414 6  85714491.82306
> 2022 08 16 16 24 41.0000000  0 18
C20  24480436.495 7 127475894.49007
C29  23107027.760 7 120324354.18407
C30  21849990.049 8 113778632.48308
C32  23148029.114 7 120537864.34207
E12  24244630.870 7 127406393.34607  24244629.974 7  95141135.10807  24244630.671 7  97623071.87707
E24  25089350.504 6 131845426.54706  25089351.248 7  98456003.42207  25089350.520 7 101024417.03207
E31  25445958.886 7 133719410.86507  25445963.859 7  99855425.28207  25445962.564 7 102460337.47707
E33  24221868.490 6 127286767.61006  24221870.214 7  95051824.67307  24221870.331 7  97531429.50807
G05  20566492.600 5 108077645.37605  20566491.911 4  84216348.47804  20566492.449 7  84216353.48207
G12  24444633.680 7 128457411.95007                                  24444604.519 5 100096563.28605
G13  24913134.511 6 130919389.96006
G25  22054658.067 7 115898011.43207  22054660.000 5  90310152.17705  22054660.312 7  90310148.17007
G29  20626441.593 8 108392681.94208  20626440.892 6  84461830.28906  20626441.225 7  84461829.28407
R02  20683598.228 7 110371644.87707  20683605.773 7  85844634.60807
R03  22833627.088 6 122230203.60806  22833633.838 6  95067971.35806
R15  22651458.296 6 121042550.90706  22651467.839 6  94144216.93006
R17  19988985.183 8 106965095.90308  19988989.841 6  83195090.86406
R18  20644725.911 7 110202954.50607  20644732.359 7  85713434.09707
> 2022 08 16 16 24 42.0000000  0 18
C20  24479885.312 6 127473024.11706
C29  23106728.201 7 120322794.65207
C30  21850189.581 8 113779671.27008
C32  23147960.052 7 120537504.03707
E12  24244494.268 7 127405675.25507  24244493.282 7  95140598.87607  24244494.010 7  97622521.65507
E24  25089436.539 6 131845877.99006  25089437.187 7  98456340.55207  25089436.460 7 101024762.95007
E31  25446500.829 7 133722259.06807  25446505.882 7  99857552.17407  25446504.553 7 102462519.86307
E33  24222152.612 5 127288260.11405  24222154.283 7  95052939.22207  24222154.364 7  97532573.12607
G05  20566576.786 6 108078087.63506  20566576.040 4  84216693.10304  20566576.616 7  84216698.09007
G12  24445444.346 6 128461675.35006                                  24445415.254 5 100099885.37205
G13  24912638.133 6 130916781.99506
G25  22055280.985 7 115901285.07807  22055282.969 5  90312703.06805  22055283.433 7  90312699.06507
G29  20626328.195 8 108392085.73908  20626327.421 6  84461365.71706  20626327.740 7  84461364.70007
R02  20683352.746 7 110370334.57407  20683360.333 7  85843615.46607
R03  22832892.943 6 122226273.90506  22832900.275 6  95064914.94106
R15  22652268.549 6 121046880.11906  22652278.018 6  94147584.08106
R17  19989236.169 8 106966438.54508  19989240.410 6  83196135.14106
R18  20644470.970 7 110201595.13207  20644477.875 7  85712376.80007
> 2022 08 16 16 24 43.0000000  0 19
C20  24479334.238 6 127470153.93006
C29  23106428.721 7 120321235.28207
C30  21850389.077 8 113780710.33008
C32  23147891.000 7 120537144.30307
E12  24244357.548 7 127404957.36207  24244356.726 7  95140062.78507  24244357.377 7  97621971.58107
E24  25089522.510 6 131846329.95406  25089523.127 7  98456678.03307  25089522.527 7 101025109.24607
E31  25447042.882 7 133725107.56507  25447047.939 7  99859679.28907  25447046.602 7 102464702.47707
E33  24222436.497 5 127289752.78905  24222438.316 7  95054053.87307  24222438.438 7  97533716.84907
G05  20566660.790 5 108078530.56305  20566660.263 4  84217038.24804  20566660.986 7  84217043.24207
G12  24446254.573 7 128465938.82407                                  24446226.613 5 100103207.56005
G13  24912141.879 6 130914174.14806
G15  25006868.251 5
G25  22055904.001 7 115904559.12907  22055906.009 5  90315254.27605  22055906.261 7  90315250.27007
G29  20626214.809 8 108391489.94608  20626214.025 6  84460901.46006  20626214.270 7  84460900.45707
R02  20683107.218 7 110369025.10407  20683114.845 7  85842597.00307
R03  22832159.139 6 122222344.41306  22832166.450 6  95061858.67006
R15  22653079.010 6 121051209.59506  22653088.462 6  94150951.44106
R17  19989486.982 8 106967781.54108  19989490.949 6  83197179.67606
R18  20644216.206 7 110200235.99707  20644223.174 6  85711319.69606
> 2022 08 16 16 24 44.0000000  0 19
C20  24478782.645 7 127467283.47207
C29  23106129.183 7 120319675.65107
C30  21850588.624 8 113781749.23508
C32  23147822.014 7 120536784.69407
E12  24244220.837 7 127404239.19807  24244220.092 7  95139526.50507  24244220.745 7  97621421.30407
E24  25089608.437 6 131846781.96206  25089609.102 7  98457015.57107  25089608.576 7 101025455.58307
E31  25447584.959 7 133727955.91407  25447589.960 7  99861806.30307  25447588.663 7 102466884.97007
E33  24222720.220 5 127291245.14505  24222722.226 7  95055168.30607  24222722.449 7  97534860.35707
G05  20566744.970 5 108078973.72505  20566744.540 4  84217383.57004  20566745.153 7  84217388.59207
G12  24447064.577 7 128470201.90707                                  24447038.139 5 100106529.41805
G13  24911645.515 6 130911565.94906
G15  25006274.344 5
G25  22056526.988 7 115907833.14607  22056529.045 5  90317805.45605  22056529.377 7  90317801.45307
G29  20626101.457 8 108390894.15508  20626100.629 6  84460437.20406  20626100.921 7  84460436.19807
R02  20682862.016 7 110367716.03307  20682869.499 7  85841578.84607
R03  22831424.782 5 122218414.61205  22831432.488 6  95058802.19406
R15  22653889.644 6 121055538.90506  22653898.366 6  94154318.69306
R17  19989737.736 8 106969124.42008  19989741.774 6  83198224.15606
R18  20643961.367 7 110198876.67407  20643968.397 6  85710262.44406
> 2022 08 16 16 24 45.0000000  0 19
C20  24478230.921 7 127464412.96707
C29  23105829.608 7 120318115.90307
C30  21850788.098 8 113782788.13908
C32  23147753.045 7 120536425.38407
E12  24244084.228 7 127403520.94507  24244083.451 7  95138990.14707  24244084.061 7  97620870.95107
E24  25089694.581 6 131847234.15206  25089695.170 7  98457353.25407  25089694.666 7 101025802.07707
E31  25448127.003 7 133730804.26607  25448132.033 7  99863933.32807  25448130.760 7 102469067.48607
E33  24223004.096 6 127292737.38406  24223006.185 7  95056282.62507  24223006.423 7  97536003.74007
G05  20566828.900 5 108079417.33605  20566828.928 4  84217729.24004  20566829.537 7  84217734.26007
G12  24447874.099 7 128474464.76507                                  24447849.239 6 100109851.15506
G13  24911149.360 6 130908957.58706
G15  25005680.928 5
G25  22057150.079 7 115911107.28607  22057152.103 5  90320356.73105  22057152.559 7  90320352.71907
G29  20625988.093 8 108390298.49308  20625987.264 6  84459973.05106  20625987.501 7  84459972.05507
R02  20682616.796 7 110366407.50407  20682624.322 7  85840561.10507
R03  22830690.231 5 122214484.74505  22830698.699 6  95055745.61406
R15  22654700.274 6 121059868.20806  22654708.720 6  94157685.91206
R17  19989988.797 8 106970467.31808  19989992.744 6  83199268.63406
R18  20643706.882 7 110197517.31707  20643713.363 6  85709205.17706
> 2022 08 16 16 24 46.0000000  0 19
C20  24477679.324 6 127461542.28906
C29  23105530.041 7 120316555.94707
C30  21850987.504 8 113783826.95008
C32  23147684.025 7 120536066.29607
E12  24243947.497 7 127402802.52707  24243946.785 7  95138453.65307  24243947.291 7  97620320.46107
E24  25089780.795 6 131847686.52606  25089781.265 7  98457691.06407  25089780.789 7 101026148.69807
E31  25448668.974 7 133733652.56007  25448674.072 7  99866060.29807  25448672.822 7 102471249.93407
E33  24223287.919 6 127294229.40306  24223290.128 7  95057396.79807  24223290.331 7  97537146.97607
G05  20566913.496 5 108079861.31005  20566913.388 4  84218075.19104  20566913.843 7  84218080.19007
G12  24448683.398 7 128478727.33307                                  24448660.719 6 100113172.62006
G13  24910652.721 6 130906348.94506
G15  25005085.939 5
G25  22057773.016 7 115914381.46407  22057775.174 5  90322908.04105  22057775.561 7  90322904.03607
G29  20625874.712 8 108389702.88808  20625873.922 6  84459508.94506  20625874.184 7  84459507.95107
R02  20682371.589 7 110365099.43707  20682379.069 7  85839543.71707
R03  22829956.348 5 122210554.73905  22829964.288 6  95052688.93506
R15  22655510.651 6 121064197.36306  22655518.603 6  94161053.03006
R17  19990239.639 8 106971810.13508  19990243.551 6  83200313.02406
R18  20643452.320 7 110196157.82507  20643458.397 6  85708147.79506
> 2022 08 16 16 24 47.0000000  0 19
C20  24477127.955 6 127458671.44606
C29  23105230.446 7 120314995.79107
C30  21851187.023 8 113784865.68208
C32  23147615.022 7 120535707.40407
E12  24243810.737 7 127402083.88007  24243810.081 7  95137917.01307  24243810.504 7  97619769.82507
E24  25089867.205 6 131848139.00106  25089867.327 7  98458028.94907  25089866.897 7 101026495.39507
E31  25449210.953 7 133736500.77107  25449216.020 7  99868187.20607  25449214.843 7 102473432.33007
E33  24223572.022 6 127295721.18506  24223574.012 7  95058510.78607  24223574.202 7  97538290.03307
G05  20566998.092 5 108080305.56805  20566997.924 4  84218421.36804  20566998.450 7  84218426.35607
G12                                                                  24449472.392 5 100116493.84205
G13  24910156.745 6 130903740.04106  24910188.145 1
G15  25004490.855 5
G25  22058396.212 7 115917655.67107  22058398.263 5  90325459.37205  22058398.739 7  90325455.35607
G29  20625761.269 8 108389107.34208  20625760.580 6  84459044.88406  20625760.798 7  84459043.88107
R02  20682126.638 7 110363791.82807  20682134.140 7  85838526.68207
R03  22829221.030 5 122206624.46005  22829230.173 6  95049632.11406
R15  22656321.118 6 121068526.42706  22656328.819 6  94164420.06006
R17  19990490.658 8 106973152.87708  19990494.555 6  83201357.38706
R18  20643197.509 7 110194798.20807  20643203.675 6  85707090.30006
> 2022 08 16 16 24 48.0000000  0 19
C20  24476576.653 6 127455800.85106
C29  23104930.827 7 120313435.84107
C30  21851386.609 8 113785904.71908
C32  23147546.025 7 120535349.13107
E12  24243673.958 7 127401365.47607  24243673.350 7  95137380.53407  24243673.825 7  97619219.35307
E24  25089953.413 6 131848592.01006  25089953.548 7  98458367.23907  25089953.127 7 101026842.51807
E31  25449753.019 7 133739349.30007  25449758.037 7  99870314.35307  25449756.905 7 102475614.97307
E33  24223856.074 6 127297213.16006  24223857.908 7  95059624.91407  24223858.134 7  97539433.22607
G05  20567082.953 5 108080750.55405  20567082.581 4  84218768.10404  20567083.113 7  84218773.09807
G12                                                                  24450283.902 5 100119815.14105
G13  24909660.417 6 130901131.27106  24909691.701 1 102001023.36911
G15  25003896.112 5
G25  22059019.432 7 115920930.32307  22059021.424 5  90328011.04705  22059022.005 7  90328007.04207
G29  20625647.940 8 108388512.25408  20625647.323 6  84458581.18106  20625647.609 7  84458580.17707
R02  20681881.790 7 110362485.07107  20681889.360 7  85837510.31507
R03  22828486.119 4 122202694.45604  22828495.962 6  95046575.49306
R15  22657131.717 6 121072855.81106  22657139.391 6  94167787.38706
R17  19990741.661 8 106974496.00708  19990745.568 6  83202402.04806
R18  20642942.721 7 110193438.87507  20642948.920 6  85706033.05306
> 2022 08 16 16 24 49.0000000  0 19
C20  24476025.456 6 127452930.46406
C29  23104631.198 7 120311876.09407
C30  21851586.261 8 113786944.09208
C32  23147477.418 7 120534991.47407
E12  24243537.289 7 127400647.29807  24243536.636 7  95136844.23307  24243537.132 7  97618669.06207
E24  25090039.880 6 131849045.57606  25090039.769 7  98458705.94207  25090039.444 7 101027190.04507
E31  25450295.251 7 133742198.19207  25450300.147 7  99872441.76607  25450299.012 7 102477797.88407
E33  24224139.994 6 127298705.29506  24224141.865 7  95060739.19307  24224142.121 7  97540576.57207
G05  20567167.843 5 108081196.31205  20567167.421 4  84219115.44904  20567167.991 7  84219120.43007
G12                                                                  24451095.671 5 100123136.55705
G13  24909163.918 6 130898522.60806  24909195.252 1 101998990.62801
G15  25003300.514 5 131393229.49215
G25  22059642.630 7 115924205.42907  22059644.679 5  90330563.07605  22059645.330 7  90330559.06407
G29  20625534.801 8 108387917.65108  20625534.159 6  84458117.85606  20625534.439 7  84458116.85007
R02  20681637.166 7 110361179.20407  20681644.567 7  85836494.62907
R03                                  22827761.859 6  95043519.04306
R15  22657941.929 6 121077185.55206  22657949.978 6  94171154.95606
R17  19990992.746 8 106975839.51908  19990996.496 6  83203447.00406
R18  20642688.240 7 110192079.84107  20642694.513 6  85704976.03606
> 2022 08 16 16 24 50.0000000  0 19
C20  24475474.644 5 127450059.74105
C29  23104331.525 7 120310315.97507
C30  21851785.849 8 113787983.21608
C32  23147408.740 7 120534633.85907
E12  24243400.580 7 127399928.77407  24243399.866 7  95136307.67707  24243400.367 7  97618118.51007
E24  25090126.277 6 131849499.10706  25090126.065 7  98459044.60007  25090125.720 7 101027537.55307
E31  25450837.339 7 133745046.82707  25450842.165 7  99874568.98607  25450841.106 8 102479980.59708
E33  24224423.691 6 127300197.09406  24224425.665 7  95061853.17507  24224425.972 7  97541719.61707
G05  20567253.084 5 108081642.14805  20567252.234 4  84219462.85304  20567252.825 7  84219467.86707
G12                                                                  24451906.661 5 100126457.58305
G13  24908667.639 6 130895913.53306  24908698.553 1 101996957.55101
G15  25002704.093 5 131390097.58705
G25  22060265.689 7 115927480.39507  22060267.902 5  90333114.99905  22060268.575 7  90333110.99707
G29  20625421.578 8 108387322.93208  20625420.978 6  84457654.43406  20625421.285 7  84457653.42707
R02  20681392.427 7 110359873.60507  20681399.885 7  85835479.16807
R03                                  22827027.876 6
R15  22658752.818 6 121081515.00706  22658759.677 6  94174522.27906
R17  19991243.776 8 106977182.81808  19991247.219 6  83204491.78306
R18  20642433.770 7 110190720.53507  20642439.528 6  85703918.78906
> 2022 08 16 16 24 51.0000000  0 19
C20  24474924.758 5 127447188.92905
C29  23104031.955 7 120308755.78607
C30  21851985.435 8 113789022.35908
C32  23147340.203 7 120534276.56307
E12  24243263.936 7 127399210.17707  24243263.057 7  95135771.06307  24243263.587 7  97617567.89507
E24  25090212.445 6 131849952.89106  25090212.360 7  98459383.46007  25090212.048 7 101027885.25007
E31  25451379.397 7 133747895.50807  25451384.244 7  99876696.24007  25451383.217 8 102482163.34508
E33  24224707.660 6 127301688.75606  24224709.435 7  95062967.08207  24224709.853 7  97542862.58207
G05  20567338.100 5 108082088.48105  20567337.137 4  84219810.65504  20567337.728 7  84219815.66107
G12                                                                  24452717.575 5 100129778.46805
G13  24908171.400 6 130893304.32306  24908201.765 1 101994924.40601
G15  25002106.828 5 131386965.38105
G25  22060888.958 7 115930755.51507  22060891.171 5  90335667.04105  22060891.827 7  90335663.03907
G29  20625308.433 8 108386728.39008  20625307.824 6  84457191.15106  20625308.108 7  84457190.14607
R02  20681147.941 7 110358568.58907  20681155.321 7  85834464.15907
R03                                  22826293.724 6  95037405.45906
R15  22659563.524 6 121085844.45206  22659570.163 6  94177889.61806
R17  19991494.895 8 106978526.17508  19991498.361 6  83205536.61906
R18  20642179.236 7 110189361.22107  20642184.501 6  85702861.53306
> 2022 08 16 16 24 52.0000000  0 18
C29  23103732.217 7 120307195.16107
C30  21852184.966 8 113790061.18808
C32  23147271.539 7 120533919.25207
E12  24243127.033 7 127398491.17107  24243126.314 7  95135234.13407  24243126.751 7  97617016.96707
E24  25090298.686 6 131850406.54606  25090298.741 7  98459722.23307  25090298.390 7 101028232.85307
E31  25451921.327 7 133750743.88707  25451926.273 7  99878823.26907  25451925.320 8 102484345.86808
E33  24224991.314 6 127303179.95106  24224993.183 7  95064080.65007  24224993.611 7  97544005.18907
G05  20567422.704 5 108082534.93005  20567422.076 4  84220158.53604  20567422.576 7  84220163.52107
G12                                                                  24453528.296 5 100133098.95205
G13  24907675.147 6 130890694.63806  24907705.003 1 101992890.90801
G15  25001509.092 5 131383832.52205                                  25001510.332 5 102377001.19015
G25  22061512.381 7 115934030.44807  22061514.376 5  90338218.93705  22061514.903 7  90338214.92707
G29  20625195.294 8 108386133.67008  20625194.638 6  84456727.73506  20625194.954 7  84456726.73207
R02  20680903.271 7 110357263.78807  20680910.820 7  85833449.32007
R03                                  22825559.600 6  95034348.34506
R15  22660374.022 6 121090173.51806  22660380.940 6  94181256.66006
R17  19991745.690 7 106979869.20507  19991749.479 6  83206581.20406
R18  20641924.549 7 110188001.57007  20641929.676 6  85701804.02906
> 2022 08 16 16 24 53.0000000  0 18
C29  23103432.449 8 120305634.18208
C30  21852384.457 8 113791099.78308
C32  23147202.849 7 120533561.98907
E12  24242990.055 7 127397771.82007  24242989.406 7  95134696.95507  24242989.855 7  97616465.77307
E24  25090384.944 6 131850860.20206  25090385.122 7  98460060.99207  25090384.715 7 101028580.45607
E31  25452463.168 7 133753592.02307  25452468.218 7  99880950.12607  25452467.351 8 102486528.20608
E33  24225274.970 6 127304670.77206  24225276.893 7  95065193.93607  24225277.289 7  97545147.52207
G05  20567508.387 5 108082981.54505  20567507.028 4  84220506.55304  20567507.651 7  84220511.52807
G12                                                                  24454337.833 5 100136419.08305
G13  24907178.379 6 130888084.47706  24907207.933 1 101990856.97701
G15  25000911.732 5 131380699.06505                                  25000914.542 5 102374559.51605
G25  22062135.591 7 115937305.25207  22062137.559 5  90340770.72705  22062138.063 7  90340766.73007
G29  20625082.259 8 108385538.85808  20625081.421 6  84456264.24106  20625081.908 7  84456263.23407
R02  20680658.781 7 110355959.29407  20680666.459 7  85832434.71107
R03                                  22824825.559 6  95031290.96406
R15  22661183.987 6 121094502.32406  22661190.570 5  94184623.50505
R17  19991996.514 7 106981212.00807  19992000.415 6  83207625.59606
R18  20641669.807 7 110186641.63007  20641674.907 6  85700746.31206
> 2022 08 16 16 24 54.0000000  0 18
C29  23103132.635 8 120304072.87408
C30  21852583.968 8 113792138.14608
C32  23147134.295 7 120533204.80807
E12  24242853.211 7 127397052.13907  24242852.418 7  95134159.53707  24242852.893 7  97615914.33207
E24  25090471.317 6 131851313.86906  25090471.440 7  98460399.76007  25090471.054 8 101028928.05708
E31  25453005.031 7 133756439.95007  25453010.164 7  99883076.82907  25453009.324 8 102488710.38208
E33  24225558.710 6 127306161.26306  24225560.454 7  95066306.95007  24225560.850 7  97546289.57007
G05  20567593.793 5 108083428.32205  20567592.038 4  84220854.68704  20567592.732 7  84220859.69307
G12                                                                  24455147.574 5 100139738.85505
G13  24906681.313 6 130885473.96706  24906710.993 1 101988822.83001
G15  25000314.565 6 131377565.07006                                  25000318.202 5 102372117.46405
G25  22062758.840 7 115940579.96107  22062760.725 5  90343322.45005  22062761.197 7  90343318.45107
G29  20624969.170 7 108384943.96807  20624968.204 6  84455800.68906  20624968.707 7  84455799.69207
R02  20680414.450 7 110354655.11407  20680422.032 7  85831420.35307
R03                                  22824091.459 6  95028233.32506
R15  22661994.398 6 121098830.94206  22662000.093 5  94187990.22105
R17  19992247.228 7 106982554.64607  19992251.127 6  83208669.87306
R18  20641415.172 7 110185281.43707  20641420.334 6  85699688.38306
> 2022 08 16 16 24 55.0000000  0 18
C29  23102832.783 7 120302511.48507
C30  21852783.481 8 113793176.56108
C32  23147065.773 7 120532847.96307
E12  24242716.181 7 127396332.41107  24242715.404 7  95133622.07507  24242715.917 7  97615362.85007
E24  25090557.598 6 131851767.74706  25090557.788 7  98460738.70507  25090557.447 8 101029275.85108
E31  25453546.874 7 133759287.91907  25453552.059 7  99885203.55707  25453551.256 8 102490892.59608
E33  24225842.477 6 127307651.67206  24225843.930 7  95067419.89407  24225844.400 7  97547431.54707
G05  20567678.371 5 108083875.57605  20567677.155 4  84221203.19804  20567677.905 7  84221208.18507
G12  24455952.188 7 128517080.97107  24455953.310 3 100143040.44713  24455957.928 5 100143058.46105
G13  24906185.029 6 130882863.33606  24906213.820 1 101986788.50201
G15  24999717.641 6 131374430.70906                                  24999722.171 5 102369675.08005
G25  22063382.173 7 115943854.82307  22063383.944 5  90345874.29605  22063384.242 7  90345870.29807
G29  20624856.042 8 108384349.25708  20624855.036 6  84455337.27806  20624855.374 7  84455336.27607
R02  20680170.401 8 110353351.54908  20680177.712 7  85830406.45807
R03                                  22823357.106 6  95025175.67006
R15  22662804.401 6 121103159.55906  22662810.104 5  94191356.94705
R17  19992497.884 7 106983897.37907  19992502.516 6  83209714.20806
R18  20641160.403 7 110183921.20907  20641165.475 6  85698630.43906
> 2022 08 16 16 24 56.0000000  0 18
C29  23102533.028 8 120300950.33308
C30  21852983.056 8 113794215.34108
C32  23146997.355 7 120532491.77407
E12  24242579.278 7 127395612.96307  24242578.504 7  95133084.81007  24242579.007 7  97614811.57007
E24  25090644.238 6 131852222.23506  25090644.283 7  98461078.09007  25090643.976 8 101029624.08908
E31  25454088.870 7 133762136.26907  25454094.067 7  99887330.57407  25454093.303 8 102493075.09708
E33  24226126.330 6 127309142.26606  24226127.610 7  95068533.02807  24226128.006 7  97548573.72607
G05  20567763.665 5 108084323.57805  20567762.415 4  84221552.29304  20567763.179 7  84221557.30507
G12  24456762.158 7 128521341.33807  24456764.127 3 100146360.18203  24456768.041 5 100146378.21805
G13  24905688.023 6 130880252.90906  24905716.898 1 101984754.39201
G15  24999120.256 6 131371296.40606                                  24999125.598 5 102367232.76805
G25  22064005.471 7 115947130.18107  22064007.239 5  90348426.52305  22064007.546 7  90348422.50107
G29  20624742.869 8 108383755.06408  20624741.967 6  84454874.27006  20624742.239 7  84454873.26307
R02  20679926.432 8 110352048.90708  20679933.500 7  85829393.30007
R03                                  22822622.806 6  95022118.20906
R15  22663614.008 6 121107488.51306  22663620.006 6  94194723.90006
R17  19992748.817 7 106985240.51807  19992753.704 6  83210758.89906
R18  20640905.365 7 110182561.31407  20640910.727 6  85697572.74006
> 2022 08 16 16 24 57.0000000  0 20
C20  24471636.294 6 127429958.63306
C29  23102233.163 8 120299388.71408
C30  21853182.456 8 113795253.76308
C32  23146928.838 7 120532135.53407
E12  24242442.215 7 127394893.02307  24242441.524 7  95132547.20907  24242442.040 7  97614259.93507
E24  25090730.577 6 131852676.55606  25090730.771 7  98461417.36907  25090730.449 8 101029972.21808
E31  25454630.889 7 133764984.26407  25454636.010 7  99889457.32507  25454635.256 8 102495257.33408
E33  24226410.027 6 127310632.38006  24226411.255 7  95069645.77307  24226411.532 7  97549715.50107
G05  20567847.681 5 108084771.69105  20567847.694 4  84221901.48104  20567848.427 7  84221906.46307
G12  24457573.147 7 128525601.09607  24457574.913 3 100149679.46203  24457578.673 5 100149697.52605
G13  24905191.154 5 130877641.90905  24905220.118 1 101982719.83401
G15  24998523.434 6 131368161.43506                                  24998529.431 5 102364789.91805
G25  22064628.662 7 115950405.28707  22064630.498 5  90350978.54805  22064630.645 7  90350974.54407
G29  20624629.704 8 108383160.64608  20624628.848 6  84454411.08606  20624629.064 7  84454410.09207
R02  20679682.481 8 110350746.46208  20679689.343 7  85828380.28907
R03                                  22821888.074 7  95019060.39807
R09  23389279.557 5 124897462.89215  23389290.035 6  97142496.51416
R15  22664423.895 6 121111817.07406  22664430.335 6  94198090.56206
R17  19992999.740 7 106986583.27707  19993004.659 6  83211803.26906
R18  20640650.527 7 110181201.03407  20640655.924 6  85696514.75606
> 2022 08 16 16 24 58.0000000  0 20
C20  24471085.431 6 127427086.14006
C29  23101933.156 8 120297826.62208
C30  21853381.765 8 113796291.81208
C32  23146860.125 7 120531779.18907
E12  24242305.089 7 127394172.62407  24242304.453 7  95132009.25207  24242304.924 7  97613707.95207
E24  25090817.082 6 131853130.72806  25090817.238 7  98461756.51807  25090816.889 8 101030320.21508
E31  25455172.813 7 133767831.91707  25455177.883 7  99891583.80907  25455177.160 8 102497439.29108
E33  24226693.601 6 127312121.98706  24226694.871 7  95070758.15207  24226695.017 7  97550856.89807
G05  20567932.764 5 108085219.84005  20567932.959 4  84222250.69304  20567933.852 7  84222255.66107
G12  24458384.733 7 128529860.26507  24458385.613 3 100152998.29603  24458388.908 5 100153016.36305
G13  24904693.862 5 130875030.34005  24904723.160 1 101980684.83801
G15  24997926.701 6 131365025.71806                                  24997932.839 5 102362346.52205
G25  22065251.817 7 115953680.14607  22065253.681 5  90353530.38705  22065253.993 7  90353526.38407
G29  20624516.407 8 108382566.02208  20624515.680 6  84453947.74106  20624515.788 7  84453946.74107
R02  20679438.417 8 110349444.20108  20679445.106 7  85827367.41107
R03                                  22821153.220 7  95016002.21907
R09  23388878.081 5 124895318.90605  23388888.756 6  97140828.96706
R15  22665233.324 6 121116145.16406  22665240.644 6  94201456.85206
R17  19993250.656 7 106987925.68107  19993255.625 6  83212847.36506
R18  20640395.364 7 110179840.37207  20640401.111 6  85695456.46106
> 2022 08 16 16 24 59.0000000  0 20
C20  24470532.992 6 127424213.31406
C29  23101633.074 8 120296264.10008
C30  21853581.013 8 113797329.54708
C32  23146791.556 7 120531422.84807
E12  24242167.832 7 127393451.83207  24242167.296 7  95131470.99707  24242167.717 7  97613155.64907
E24  25090903.399 6 131853584.82906  25090903.725 7  98462095.62507  25090903.287 8 101030668.17408
E31  25455714.568 7 133770679.26807  25455719.767 7  99893710.08207  25455718.987 8 102499621.02908
E33  24226977.040 6 127313611.15606  24226978.342 7  95071870.19707  24226978.408 7  97551997.94207
G05  20568018.282 5 108085668.02205  20568018.232 4  84222599.91504  20568019.234 7  84222604.91907
G12  24459196.462 7 128534118.93307  24459195.952 2 100156316.72402  24459198.717 5 100156334.74805
G13  24904195.989 6 130872418.27006  24904225.866 1 101978649.46001
G15  24997329.611 6 131361889.39406                                  24997335.925 5 102359902.61905
G25  22065874.970 7 115956954.82607  22065876.833 5  90356082.08705  22065877.211 7  90356078.08007
G29  20624403.123 8 108381971.22008  20624402.468 6  84453484.26206  20624402.692 7  84453483.25607
R02  20679194.373 8 110348142.15208  20679201.023 7  85826354.72207
R03                                  22820418.469 7  95012943.72907
R09  23388476.476 5 124893174.93005  23388487.280 6  97139161.45506
R15  22666042.175 6 121120472.97306  22666050.914 6  94204822.91706
R17  19993501.524 7 106989267.84507  19993506.022 6  83213891.27206
R18  20640140.527 7 110178479.33707  20640146.079 6  85694397.87406
> 2022 08 16 16 25  0.0000000  0 20
C20  24469979.138 6 127421340.16506
C29  23101333.012 8 120294701.23308
C30  21853780.214 8 113798367.04508
C32  23146722.932 7 120531066.58507
E12  24242030.553 7 127392730.69607  24242030.128 7  95130932.48607  24242030.468 7  97612603.10107
E24  25090989.750 6 131854038.89506  25090990.187 7  98462434.69807  25090989.721 8 101031016.09608
E31  25456256.425 7 133773526.38607  25456261.565 7  99895836.16507  25456260.779 8 102501802.57908
E33  24227260.229 6 127315099.97206  24227261.705 7  95072981.94307  24227261.765 7  97553138.69807
G05  20568103.648 5 108086116.41705  20568103.596 4  84222949.32004  20568104.529 7  84222954.31907
G12  24460008.371 7 128538377.13307  24460006.264 2 100159634.79202  24460009.109 5 100159652.85905
G13  24903698.240 6 130869805.83906  24903728.595 1 101976613.78501
G15  24996732.640 5 131358752.43305                                  24996738.878 5 102357458.27505
G25  22066497.975 7 115960229.38807  22066499.971 5  90358633.69105  22066500.619 7  90358629.68607
G29  20624289.805 8 108381376.32508  20624289.237 6  84453020.70706  20624289.457 7  84453019.71607
R02  20678950.553 8 110346840.39908  20678957.039 7  85825342.23907
R03                                  22819683.926 7  95009884.98407
R09  23388074.960 5 124891031.17205  23388085.934 6  97137494.07606
R15  22666851.769 6 121124800.54406  22666861.135 6  94208188.81206
R17  19993752.371 7 106990609.83507  19993756.691 6  83214935.02306
R18  20639885.658 7 110177118.01907  20639891.243 6  85693339.08506
> 2022 08 16 16 25  1.0000000  0 19
C29  23101032.928 8 120293138.43108
C30  21853979.463 8 113799404.73208
C32  23146654.367 7 120530710.77907
E12  24241893.332 7 127392009.64507  24241892.859 7  95130394.05207  24241893.282 7  97612050.60407
E24  25091076.228 6 131854493.37606  25091076.666 7  98462774.08007  25091076.200 8 101031364.32808
E31  25456798.267 7 133776373.68607  25456803.381 7  99897962.40207  25456802.605 8 102503984.27608
E33  24227543.571 6 127316588.80806  24227545.071 7  95074093.72507  24227545.103 7  97554279.47907
G05  20568189.901 5 108086565.38805  20568189.066 4  84223299.15904  20568190.094 7  84223304.20607
G12  24460820.278 6 128542635.27506  24460816.633 2 100162952.83502  24460820.020 5 100162970.91505
G13  24903201.234 5 130867193.36905  24903231.234 1 101974578.07801
G15  24996135.330 6 131355615.36406                                  24996142.466 5 102355013.79405
G25  22067121.119 7 115963504.26107  22067123.159 5  90361185.53805  22067123.900 7  90361181.52407
G29  20624176.659 8 108380781.75108  20624176.069 6  84452557.40506  20624176.248 7  84452556.40307
R02  20678706.740 8 110345539.35408  20678713.122 7  85824330.31907
R03                                  22818949.482 6  95006826.27806
R09  23387673.477 5 124888887.97005  23387684.431 6  97135827.16306
R15  22667661.283 6 121129128.32606  22667671.450 5  94211554.83005
R17  19994003.186 7 106991952.00907  19994007.311 6  83215978.92006
R18  20639630.712 7 110175756.85107  20639636.572 6  85692280.39506
> 2022 08 16 16 25  2.0000000  0 19
C29  23100732.780 8 120291575.35608
C30  21854178.828 8 113800442.25708
C32  23146586.025 7 120530355.11907
E12  24241756.203 7 127391288.33707  24241755.586 7  95129855.40007  24241755.997 7  97611497.91007
E24  25091162.832 6 131854947.89906  25091163.160 7  98463113.49207  25091162.684 8 101031712.59208
E31  25457340.147 7 133779220.84707  25457345.128 7  99900088.52507  25457344.438 8 102506165.86408
E33  24227826.848 6 127318077.33606  24227828.321 7  95075205.30707  24227828.363 7  97555420.05407
G05  20568275.301 5 108087014.67905  20568274.595 4  84223649.27904  20568275.706 7  84223654.27007
G12  24461631.769 6 128546893.05906  24461626.954 2 100166270.57302  24461631.525 4 100166288.66604
G13  24902703.841 6 130864580.59606  24902733.905 1 101972542.14001
G15  24995538.272 5 131352477.79505                                  24995546.123 6 102352568.92806
G25  22067744.242 8 115966779.09208  22067746.347 5  90363737.35205  22067747.083 7  90363733.33307
G29  20624063.602 8 108380187.16008  20624062.910 6  84452094.08806  20624063.009 7  84452093.08707
R02  20678463.050 8 110344238.70408  20678469.450 7  85823318.69107
R03                                  22818215.019 6  95003767.37506
R09  23387272.044 5 124886745.04005  23387283.642 6  97134160.44806
R15  22668470.873 6 121133455.88506  22668481.737 6  94214920.72706
R17  19994253.950 7 106993294.02607  19994258.029 6  83217022.72906
R18  20639375.715 7 110174395.52407  20639381.699 6  85691221.55606
> 2022 08 16 16 25  3.0000000  0 20
C27  25273180.763 6 131604083.22316
C29  23100432.597 8 120290012.35308
C30  21854378.106 8 113801479.97208
C32  23146517.689 7 120529999.93707
E12  24241618.959 7 127390567.12407  24241618.304 7  95129316.82707  24241618.736 7  97610945.29307
E24  25091249.500 6 131855402.81706  25091249.639 7  98463453.21707  25091249.272 8 101032061.17808
E31  25457882.096 7 133782068.21507  25457886.952 7  99902214.80407  25457886.310 8 102508347.60808
E33  24228110.024 6 127319565.93606  24228111.516 7  95076316.91507  24228111.706 7  97556560.66307
G05  20568360.156 5 108087464.54905  20568360.244 4  84223999.81604  20568361.348 7  84224004.82307
G12  24462443.100 6 128551150.80706  24462437.123 2 100169588.30302  24462441.760 4 100169606.38904
G13  24902206.871 6 130861967.81506  24902236.397 1 101970506.17601
G15  24994940.885 5 131349340.06205                                  24994949.508 6 102350123.95206
G25  22068367.554 8 115970054.23108  22068369.575 5  90366289.40805  22068370.378 7  90366285.39707
G29  20623950.490 8 108379592.91508  20623949.819 6  84451631.04106  20623949.964 7  84451630.03907
R02  20678219.462 8 110342938.78808  20678225.763 7  85822307.65107
R03                                  22817480.129 6  95000708.56606
R09  23386870.462 5 124884602.70805  23386883.226 6  97132494.15106
R15  22669280.615 6 121137783.63006  22669290.334 5  94218286.72805
R17  19994504.879 7 106994636.30107  19994509.123 6  83218066.71306
R18  20639120.654 7 110173034.30407  20639126.979 6  85690162.83906
> 2022 08 16 16 25  4.0000000  0 20
C27  25273725.863 6 131606920.97106
C29  23100132.278 8 120288448.77008
C30  21854577.367 8 113802517.22008
C32  23146449.466 7 120529644.57507
E12  24241481.601 7 127389845.32407  24241480.961 7  95128777.83007  24241481.364 7  97610392.22507
E24  25091336.026 6 131855857.49206  25091336.173 7  98463792.74407  25091335.796 8 101032409.56208
E31  25458423.882 7 133784915.10307  25458428.662 7  99904340.71707  25458428.071 8 102510528.99108
E33  24228393.143 6 127321053.91006  24228394.652 7  95077428.06107  24228394.848 7  97557700.79807
G05  20568445.446 5 108087914.37505  20568445.863 4  84224350.32604  20568446.771 7  84224355.31507
G12  24463253.833 6 128555407.84506  24463247.050 2 100172905.48702  24463252.394 4 100172923.55804
G13  24901710.110 5 130859354.35905  24901738.544 1 101968469.74501
G15  24994343.017 5 131346201.53405                                  24994353.045 6 102347678.34806
G25  22068990.601 8 115973329.00908  22068992.740 5  90368841.18105  22068993.627 7  90368837.16807
G29  20623837.468 8 108378998.33408  20623836.669 6  84451167.73106  20623836.818 7  84451166.72707
R02  20677975.926 8 110341638.95108  20677982.377 7  85821296.67507
R03                                  22816745.350 6  94997649.30406
R09  23386469.952 5 124882460.25305  23386482.721 6  97130827.80606
R15  22670091.218 6 121142110.85806  22670100.142 5  94221652.31405
R17  19994755.736 7 106995978.11407  19994759.706 6  83219110.33706
R18  20638865.609 7 110171672.57607  20638871.417 6  85689103.74506
> 2022 08 16 16 25  5.0000000  0 20
C27  25274270.672 6 131609758.33906
C29  23099831.933 8 120286884.85208
C30  21854776.516 8 113803554.25308
C32  23146381.310 7 120529289.28407
E12  24241344.112 7 127389123.20407  24241343.509 7  95128238.59007  24241343.982 7  97609838.92307
E24  25091422.688 6 131856312.18306  25091422.678 7  98464132.28007  25091422.339 8 101032757.95508
E31  25458965.645 7 133787761.79707  25458970.360 7  99906466.49007  25458969.828 8 102512710.22408
E33  24228676.175 6 127322541.55106  24228677.695 7  95078538.96407  24228677.928 7  97558840.68007
G05  20568531.135 5 108088364.38205  20568531.548 4  84224700.97704  20568532.356 7  84224705.97007
G12  24464064.123 6 128559664.48306  24464056.968 2 100176222.33902  24464060.927 4 100176240.39104
G13  24901213.200 6 130856740.53606  24901240.759 1 101966432.97101
G15  24993745.633 5 131343062.45905                                  24993756.398 6 102345232.29706
G25  22069613.558 8 115976603.70408  22069615.887 5  90371392.89105  22069616.796 7  90371388.88107
G29  20623724.212 7 108378403.68207  20623723.501 6  84450704.36506  20623723.835 7  84450703.36407
R02  20677732.350 8 110340339.45808  20677738.890 7  85820285.95407
R03                                  22816010.617 6  94994589.81506
R09  23386069.392 5 124880317.98705  23386081.395 6  97129161.60006
R15  22670901.653 6 121146437.83206  22670909.539 5  94225017.71105
R17  19995006.412 7 106997319.72807  19995010.487 6  83220153.82006
R18  20638610.418 7 110170310.59707  20638616.336 6  85688044.42206
> 2022 08 16 16 25  6.0000000  0 20
C27  25274815.575 6 131612595.28206
C29  23099531.441 8 120285320.55408
C30  21854975.590 8 113804591.01208
C32  23146313.113 7 120528934.04707
E12  24241206.610 7 127388400.71707  24241206.025 7  95127699.07407  24241206.437 7  97609285.32607
E24  25091509.144 6 131856766.79506  25091509.218 7  98464471.76107  25091508.819 8 101033106.30008
E31  25459507.458 7 133790608.21507  25459512.012 7  99908592.07207  25459511.519 8 102514891.24408
E33  24228959.093 6 127324028.78506  24228960.708 7  95079649.54807  24228960.925 7  97559980.23707
G05  20568617.303 5 108088814.51405  20568617.278 4  84225051.73804  20568618.003 7  84225056.72307
G12  24464873.820 6 128563920.62806  24464867.029 2 100179538.80302  24464869.821 4 100179556.84904
G13  24900715.828 6 130854126.25706  24900742.839 1 101964395.85901
G15  24993148.730 5 131339922.74305                                  24993159.660 6 102342785.79406
G25  22070236.617 8 115979878.23808  22070239.004 5  90373944.47405  22070239.831 7  90373940.46907
G29  20623611.085 7 108377808.90307  20623610.311 6  84450240.90206  20623610.699 7  84450239.89807
R02  20677488.723 8 110339040.23208  20677495.486 7  85819275.43907
R03                                  22815275.774 6  94991530.03606
R09  23385667.725 5 124878175.80305  23385680.244 6  97127495.46106
R15  22671711.656 5 121150764.49305  22671718.847 5  94228382.90805
R17  19995257.134 7 106998661.11107  19995261.143 6  83221197.13006
R18  20638355.396 7 110168948.30507  20638361.415 6  85686984.85606
> 2022 08 16 16 25  7.0000000  0 20
C27  25275360.487 6 131615432.23006
C29  23099230.963 8 120283756.31508
C30  21855174.720 8 113805627.95008
C32  23146245.029 7 120528579.26507
E12  24241069.168 7 127387678.32207  24241068.554 7  95127159.62207  24241068.961 7  97608731.81007
E24  25091595.790 6 131857221.80906  25091595.837 7  98464811.54707  25091595.391 8 101033454.94808
E31  25460049.240 7 133793454.83707  25460053.681 7  99910717.79007  25460053.253 8 102517072.41608
E33  24229241.967 6 127325516.04206  24229243.693 7  95080760.17507  24229243.949 7  97561119.82707
G05  20568704.064 5 108089265.22305  20568703.124 4  84225402.93704  20568703.869 7  84225407.93007
G12  24465682.513 6 128568176.71506  24465676.929 2 100182855.22002  24465680.725 4 100182873.23004
G13  24900218.121 6 130851511.94706  24900245.161 1 101962358.74801
G15  24992551.295 5 131336782.91305  24992553.529 1 102340328.08611  24992562.930 6 102340339.15106
G25  22070859.646 8 115983153.07408  22070862.173 5  90376496.29305  22070863.182 7  90376492.28107
G29  20623498.082 7 108377214.44407  20623497.174 6  84449777.68706  20623497.686 7  84449776.68507
R02  20677245.382 8 110337741.74008  20677252.042 7  85818265.50107
R03                                  22814540.928 7  94988470.33307
R09  23385266.973 5 124876034.23605  23385278.959 6  97125829.79906
R15  22672521.238 6 121155091.31706  22672527.454 5  94231748.21505
R17  19995507.782 7 107000002.69507  19995512.179 6  83222240.57006
R18  20638100.554 7 110167586.16207  20638106.062 6  85685925.43606
> 2022 08 16 16 25  8.0000000  0 21
C27  25275905.369 6 131618268.96006
C29  23098930.474 8 120282191.90008
C30  21855373.821 8 113806664.82408
C32  23146177.024 7 120528224.71807
E12  24240931.585 7 127386955.74907  24240931.025 7  95126620.04107  24240931.447 7  97608178.14707
E24  25091682.345 6 131857676.95406  25091682.479 7  98465151.43707  25091682.014 8 101033803.70208
E31  25460590.892 7 133796301.38707  25460595.387 7  99912843.47107  25460594.975 8 102519253.54408
E33  24229524.848 6 127327003.10206  24229526.639 7  95081870.64607  24229526.906 7  97562259.27907
G02  22552297.505 6 118513122.65516
G05  20568789.734 5 108089716.31105  20568789.010 4  84225754.43904  20568789.746 7  84225759.42307
G12  24466491.224 6 128572432.51806  24466486.772 2 100186171.42502  24466490.230 4 100186189.46904
G13  24899721.036 6 130848897.42306  24899747.121 1 101960321.45201
G15  24991953.674 5 131333642.62605  24991955.955 1 102337881.11301  24991966.144 6 102337892.20606
G25  22071482.717 8 115986427.95808  22071485.339 5  90379048.14905  22071486.377 7  90379044.15207
G29  20623385.045 7 108376620.07407  20623384.051 6  84449314.54206  20623384.532 7  84449313.53007
R02  20677002.066 8 110336443.74208  20677008.671 7  85817255.94507
R03  22813801.154 6 122124167.91516  22813806.208 6  94985410.53706
R09  23384866.191 5 124873893.01105  23384877.668 6  97124164.38706
R15  22673331.454 6 121159418.03306  22673336.278 5  94235113.46305
R17  19995758.406 7 107001344.23907  19995763.077 6  83223284.00406
R18  20637845.263 7 110166223.93207  20637851.087 6  85684865.90806
> 2022 08 16 16 25  9.0000000  0 21
C27  25276450.066 6 131621105.13506
C29  23098629.871 8 120280626.98308
C30  21855572.932 8 113807701.30808
C32  23146108.892 7 120527870.07407
E12  24240793.945 7 127386232.66307  24240793.415 7  95126080.07507  24240793.867 7  97607624.10307
E24  25091769.030 6 131858131.97306  25091769.088 7  98465491.19107  25091768.631 8 101034152.32408
E31  25461132.421 6 133799147.52806  25461137.008 7  99914968.85907  25461136.631 7 102521434.38107
E33  24229807.704 6 127328489.64006  24229809.463 7  95082980.71707  24229809.734 7  97563398.29207
G02  22552736.811 6 118515432.69006
G05  20568875.391 4 108090167.44904  20568874.959 4  84226105.97904  20568875.597 7  84226110.91807
G12  24467300.543 6 128576687.74906  24467296.471 2 100189487.16302  24467300.138 4 100189505.25504
G13  24899223.623 6 130846282.29406  24899249.263 1 101958283.68601
G15  24991355.392 5 131330501.62605  24991358.273 1 102335433.60001  24991368.494 6 102335444.67606
G25  22072105.769 7 115989702.54307  22072108.468 5  90381599.77505  22072109.669 6  90381595.79806
G29  20623271.896 7 108376025.45107  20623270.892 6  84448851.19806  20623271.381 7  84448850.19607
R02  20676758.777 8 110335145.90308  20676765.382 7  85816246.51707
R03  22813064.642 5 122120233.35205  22813070.958 6  94982350.34006
R09  23384465.562 5 124871751.75205  23384476.012 6  97122498.95806
R15  22674140.713 5 121163744.25005  22674145.740 6  94238478.28906
R17  19996008.736 7 107002685.43207  19996013.900 6  83224327.10706
R18  20637590.051 6 110164861.26806  20637595.953 6  85683806.08706
> 2022 08 16 16 25 10.0000000  0 22
C20  24464422.479 6 127392599.19806
C27  25276994.692 6 131623940.78506
C29  23098329.200 8 120279061.57408
C30  21855771.922 8 113808737.41208
C32  23146040.837 7 120527515.33307
E12  24240656.314 7 127385509.14607  24240655.739 7  95125539.78207  24240656.134 7  97607069.71907
E24  25091855.664 6 131858586.82006  25091855.696 7  98465830.85307  25091855.195 8 101034500.84108
E31  25461674.069 7 133801993.37007  25461678.643 7  99917093.97107  25461678.145 7 102523614.92807
E33  24230090.624 6 127329975.64906  24230092.196 6  95084090.41306  24230092.403 7  97564536.92307
G02  22553176.367 6 118517742.18506
G05                                                                  20568961.380 7  84226462.46607
G12  24468110.448 6 128580942.33706  24468105.942 2 100192802.38202
G13  24898726.082 6 130843666.64306  24898751.214 1 101956245.49701
G15  24990758.064 5 131327359.94905  24990760.556 1 102332985.51701  24990770.672 6 102332996.59806
G25  22072728.743 7 115992976.93107  22072731.517 5  90384151.24705  22072732.862 7  90384147.24007
G29  20623158.547 7 108375430.60007  20623157.698 6  84448387.67606  20623158.173 7  84448386.66907
R02  20676515.486 8 110333848.24308  20676522.042 7  85815237.22407
R03  22812328.103 6 122116298.25006  22812336.038 6  94979289.75706
R09  23384064.539 5 124869610.51805  23384075.127 6  97120833.56706
R15  22674950.283 5 121168070.19905  22674955.376 6  94241842.90306
R17  19996259.211 7 107004026.29907  19996265.017 6  83225370.00606
R18  20637334.613 6 110163498.20006  20637340.545 6  85682745.90906
> 2022 08 16 16 25 11.0000000  0 22
C20  24463868.486 6
C27  25277539.248 6 131626776.13106
C29  23098028.619 7 120277495.98807
C30  21855970.864 8 113809773.46108
C32  23145972.762 7 120527160.86307
E12  24240518.653 6 127384785.48306  24240518.076 7  95124999.39807  24240518.350 7  97606515.21407
E24  25091942.470 5 131859041.86005  25091942.218 7  98466170.67007  25091941.861 7 101034849.52607
E31  25462215.660 7 133804839.12807  25462220.197 7  99919219.08107  25462219.648 8 102525795.44308
E33  24230373.453 6 127331461.52206  24230374.816 7  95085199.92207  24230375.060 7  97565675.40807
G02  22553615.843 6 118520051.51106
G05  20569047.509 5                                                  20569047.199 7  84226814.27207
G12  24468920.250 7 128585196.70407  24468915.565 2 100196117.47202  24468920.617 4 100196135.53904
G13  24898227.835 6 130841050.69306  24898253.111 1 101954207.07301
G15  24990159.803 6 131324217.84106  24990162.687 2 102330537.12902  24990172.762 6 102330548.21606
G25  22073351.793 7 115996251.32407  22073354.593 5  90386702.72005  22073355.754 7  90386698.70507
G29  20623045.272 7 108374835.81507  20623044.516 6  84447924.20806  20623044.888 7  84447923.20407
R02  20676272.500 8 110332551.06708  20676278.762 7  85814228.31907
R03  22811592.360 6                  22811600.531 7
R09  23383664.175 5 124867469.52505  23383674.279 6  97119168.41206
R15  22675759.307 6 121172395.91006  22675765.585 6  94245207.37306
R17  19996509.828 7 107005367.13707  19996515.770 6  83226412.93706
R18  20637078.914 6 110162134.88406  20637086.193 5  85681685.88805
> 2022 08 16 16 25 12.0000000  0 21
C27  25278084.750 6 131629611.58706
C29  23097727.951 7 120275930.42507
C30  21856169.823 8 113810809.65008
C32  23145904.586 6 120526806.79706
E12  24240381.009 7 127384061.79807  24240380.460 7  95124458.96907  24240380.544 7  97605960.70007
E24  25092028.847 6 131859497.10006  25092028.792 7  98466510.65907  25092028.594 8 101035198.39908
E31  25462757.350 7 133807685.04507  25462761.704 7  99921344.27807  25462761.152 8 102527976.07608
E33  24230656.545 7 127332947.29607  24230657.460 6  95086309.47906  24230657.582 7  97566813.88707
G02  22554054.596 5 118522360.76605
G05                                                                  20569133.168 7  84227166.53107
G12  24469729.640 7 128589450.95107  24469724.955 2 100199432.46402  24469731.809 4 100199450.48004
G13  24897729.977 6 130838434.77306  24897755.156 1 101952168.67301
G15  24989561.500 6 131321075.53006  24989564.737 2 102328088.57202  24989574.988 6 102328099.65806
G25  22073974.775 7 115999526.00407  22073977.723 5  90389254.41805  22073978.906 7  90389250.41007
G29  20622932.102 7 108374241.30507  20622931.380 6  84447460.95406  20622931.723 7  84447459.96707
R02  20676029.562 8 110331254.49908  20676035.635 7  85813219.88707
R03  22810860.802 6                  22810865.063 7
R09  23383263.282 6 124865329.12506  23383272.869 6  97117503.67906
R15  22676568.290 7 121176721.84007  22676575.523 6  94248571.99006
R17  19996760.637 7 107006708.14307  19996766.387 6  83227455.93006
R18  20636823.788 6 110160771.84206
> 2022 08 16 16 25 13.0000000  0 21
C27  25278629.753 6 131632447.25306
C29  23097427.368 7 120274365.18707
C30  21856368.980 8 113811846.25208
C32  23145836.665 6 120526453.46006
E12  24240243.323 7 127383338.48207  24240242.872 7  95123918.82407  24240242.798 7  97605406.46907
E24  25092115.550 6 131859953.11206  25092115.591 7  98466851.17107  25092115.321 8 101035547.78908
E31  25463299.170 7 133810531.39507  25463303.309 7  99923469.80707  25463302.692 8 102530157.05008
E33  24230939.557 7 127334433.43407  24230940.261 6  95087419.25006  24230940.107 7  97567952.60507
G02  22554493.646 5 118524670.30705
G05  20569217.122 4                                                  20569219.169 7  84227519.43607
G12  24470538.937 7 128593705.39507  24470534.305 2 100202747.64402  24470542.337 4 100202765.64504
G13  24897232.405 6 130835819.09206  24897257.008 1 101950130.48701
G15  24988963.522 6 131317933.35706  24988966.818 2 102325640.11402  24988976.113 5 102325651.16705
G25  22074597.785 7 116002801.22507  22074600.969 5  90391806.53605  22074602.205 7  90391802.53907
G29  20622818.865 7 108373647.38107  20622818.355 6  84446998.16706  20622818.789 7  84446997.17407
R02  20675786.680 8 110329958.94108  20675792.797 7  85812212.23807
R03  22810125.726 6 122104492.93006  22810129.590 7  94970107.87807
R09  23382863.264 6 124863189.61506  23382871.509 6  97115839.58206
R15  22677377.674 7 121181048.21807  22677385.660 7  94251936.94907
R17  19997011.413 7 107008049.63407  19997017.171 6  83228499.30906
R18  20636567.762 6 110159409.16906
> 2022 08 16 16 25 14.0000000  0 21
C27  25279174.783 6 131635282.65706
C29  23097126.742 7 120272799.75207
C30  21856568.044 8 113812882.79508
C32  23145768.742 6 120526100.35206
E12  24240105.657 7 127382615.00007  24240105.306 7  95123378.56507  24240105.069 7  97604852.10907
E24  25092202.207 6 131860409.25406  25092202.503 7  98467191.79607  25092202.064 8 101035897.29708
E31  25463840.766 7 133813377.68307  25463844.923 7  99925595.28007  25463844.239 8 102532337.97008
E33  24231222.511 7 127335919.34807  24231223.063 6  95088528.87006  24231222.611 7  97569091.16007
G02  22554932.503 5 118526979.61005
G05  20569303.344 3                                                  20569305.362 7  84227872.59807
G12  24471348.300 7 128597959.57307  24471343.741 2 100206062.57502
G13  24896734.791 6 130833203.16706  24896758.995 1 101948092.11001
G15  24988365.602 6 131314790.78106  24988368.761 2 102323191.36302  24988377.261 5 102323202.41305
G25  22075220.893 7 116006076.51407  22075224.223 5  90394358.70705  22075225.583 7  90394354.70707
G29  20622705.648 7 108373053.55007  20622705.348 6  84446535.44506  20622705.786 7  84446534.44807
R02  20675544.019 8 110328663.83108  20675550.158 7  85811204.92907
R03  22809389.596 7 122100557.99407  22809394.222 7  94967047.37007
R09  23382463.539 6 124861050.40706  23382470.419 6  97114175.75606
R15  22678187.392 7 121185374.49107  22678195.363 7  94255301.82807
R17  19997262.033 7 107009391.04907  19997267.703 6  83229542.62206
R18  20636312.394 6 110158046.38106  20636327.162 5  85678505.82805
> 2022 08 16 16 25 15.0000000  0 21
C27  25279719.526 6 131638118.45706
C29  23096826.209 7 120271234.73607
C30  21856767.222 8 113813919.86208
C32  23145701.109 6 120525748.05406
E12  24239968.023 7 127381891.94907  24239967.716 7  95122838.61807  24239967.446 7  97604298.08507
E24  25092288.929 6 131860866.13306  25092289.473 7  98467532.96707  25092288.906 8 101036247.37408
E31  25464382.528 7 133816224.50707  25464386.665 7  99927721.15107  25464385.914 8 102534519.30508
E33  24231505.457 7 127337405.66507  24231505.893 6  95089638.77506  24231505.238 7  97570230.02607
G02  22555371.831 5 118529289.36105  22555367.812 2  92360460.31612
G05  20569389.141 3                                                  20569391.653 7  84228226.49807
G12  24472157.745 7 128602214.03007  24472153.091 2 100209377.74002
G13  24896237.226 6 130830587.58506  24896260.829 1 101946054.02401
G15  24987768.132 6 131311648.39006  24987770.775 2 102320742.74202  24987778.230 6 102320753.77306
G25  22075844.175 7 116009352.43907  22075847.608 5  90396911.37405  22075849.022 7  90396907.37507
G29  20622592.821 7 108372460.38807  20622592.480 6  84446073.24806  20622592.870 7  84446072.25007
R02  20675301.533 8 110327369.79708  20675307.789 7  85810198.46007
R03  22808654.297 7 122096623.52507  22808659.131 7  94963987.22807
R09  23382063.648 6 124858912.15206  23382070.000 6  97112512.64406
R15  22678997.283 7 121189701.28007  22679005.517 7  94258667.10007
R17  19997512.810 7 107010733.04307  19997518.590 6  83230586.39006
R18  20636056.876 6 110156684.12106  20636071.697 5  85677446.27905
> 2022 08 16 16 25 16.0000000  0 21
C27  25280264.299 6 131640954.78006
C29  23096525.613 7 120269670.29607
C30  21856966.513 8 113814957.62408
C32  23145633.717 6 120525396.74406
E12  24239830.594 7 127381169.49407  24239830.255 7  95122299.12407  24239829.949 7  97603744.51807
E24  25092376.003 6 131861323.94306  25092376.597 7  98467874.84507  25092376.005 8 101036598.16708
E31  25464924.359 7 133819072.04107  25464928.520 7  99929847.55207  25464927.733 8 102536701.17908
E33  24231788.579 7 127338892.53207  24231788.825 6  95090749.10206  24231788.060 7  97571369.31307
G02  22555811.066 5 118531599.62805  22555807.431 2  92362260.47602
G05  20569476.459 4                                                  20569478.207 7  84228581.25607
G12  24472967.171 7 128606468.99407  24472962.535 2 100212693.28902
G13  24895739.408 6 130827972.51806  24895762.981 1 101944016.34801
G15  24987170.363 6 131308506.34606  24987172.852 2 102318294.38902  24987178.927 5 102318305.46905
G25  22076467.878 7 116012629.18007  22076471.162 5  90399464.67705  22076472.903 7  90399460.68007
G29  20622479.949 7 108371868.07307  20622479.768 6  84445611.70306  20622480.174 7  84445610.69807
R02  20675059.272 8 110326077.02608  20675065.648 7  85809192.97307
R03  22807918.776 7 122092689.66107  22807924.210 7  94960927.56107
R09  23381663.992 6 124856774.97006  23381669.160 6  97110850.40806
R15  22679807.182 7 121194028.76307  22679815.429 7  94262032.90607
R17  19997763.673 7 107012075.79007  19997769.132 6  83231630.75206
R18  20635802.060 6 110155322.50106  20635816.502 5  85676387.27105
> 2022 08 16 16 25 17.0000000  0 21
C27  25280808.956 6 131643791.36106
C29  23096225.238 7 120268106.16607
C30  21857165.915 8 113815995.82008
C32  23145566.397 6 120525046.17606
E12  24239693.242 7 127380447.37407  24239692.877 7  95121759.88507  24239692.549 7  97603191.19907
E24  25092463.148 6 131861782.40406  25092463.851 7  98468217.19507  25092463.222 8 101036949.45008
E31  25465466.242 7 133821920.02007  25465470.457 7  99931974.28707  25465469.691 8 102538883.39808
E33  24232071.654 7 127340379.69807  24232071.823 6  95091859.64806  24232071.084 7  97572508.83007
G02  22556250.755 5 118533910.15905  22556247.251 2  92364060.88702
G05  20569561.165 3                                                  20569564.961 7  84228936.66007
G12  24473776.651 6 128610724.16006  24473772.149 2 100216008.97502
G13  24895241.556 6 130825357.72906  24895265.003 1 101941978.87201
G15  24986572.415 6 131305364.40006  24986575.001 2 102315846.13102  24986579.502 5 102315857.19505
G25  22077091.411 7 116015906.48307  22077094.819 5  90402018.41705  22077096.723 7  90402014.41907
G29  20622367.217 7 108371276.34007  20622367.173 6  84445150.61206  20622367.500 7  84445149.60307
R02  20674817.145 8 110324785.27108  20674823.613 7  85808188.26907
R03  22807183.838 7 122088756.15007  22807189.312 7  94957868.16507
R09  23381264.769 6 124854638.63106  23381269.093 6  97109188.80206
R15  22680617.245 7 121198356.65507  22680625.454 7  94265399.04607
R17  19998014.791 7 107013419.04707  19998019.908 6  83232675.51206
R18  20635547.163 6 110153961.31506  20635561.690 5  85675328.56305
> 2022 08 16 16 25 18.0000000  0 21
C27  25281353.777 6 131646627.59706
C29  23095924.752 7 120266541.75107
C30  21857365.323 8 113817033.84108
C32  23145499.138 6 120524695.71206
E12  24239555.864 7 127379724.98107  24239555.390 7  95121220.43107  24239555.033 7  97602637.67707
E24  25092550.297 6 131862240.89406  25092551.167 7  98468559.58107  25092550.459 8 101037300.77108
E31  25466008.012 7 133824767.83807  25466012.398 7  99934100.90207  25466011.612 8 102541065.48508
E33  24232354.626 7 127341866.58107  24232354.716 6  95092969.96406  24232354.053 7  97573648.11707
G02  22556690.736 5 118536220.38205  22556687.039 2  92365861.07502
G05  20569646.935 4                                                  20569651.888 7  84229292.25307
G12  24474585.948 6 128614978.94306  24474581.634 2 100219324.39302
G13  24894743.680 6 130822742.57206  24894767.110 1 101939941.06101
G15  24985974.251 6 131302221.96106  24985977.069 3 102313397.47903  24985980.405 5 102313408.52505
G25  22077715.282 7 116019183.72907  22077718.472 5  90404572.11205  22077720.360 7  90404568.11107
G29  20622254.812 7 108370684.57207  20622254.564 6  84444689.49306  20622254.830 7  84444688.48707
R02  20674575.224 8 110323493.92808  20674581.663 7  85807183.89607
R03  22806448.850 7 122084822.34107  22806454.620 7  94954808.55107
R09  23380864.626 6 124852502.55706  23380868.852 6  97107527.39406
R15  22681427.130 7 121202684.37807  22681435.167 7  94268765.03907
R17  19998265.907 7 107014762.14507  19998270.612 6  83233720.13406
R18  20635292.342 6 110152599.92906  20635306.496 5  85674269.71005
> 2022 08 16 16 25 19.0000000  0 21
C27  25281898.425 6 131649463.81506
C29  23095624.372 7 120264977.34107
C30  21857564.691 8 113818071.96408
C32  23145431.980 6 120524345.67106
E12  24239418.381 7 127379002.59907  24239417.873 7  95120680.99607  24239417.579 7  97602084.17307
E24  25092637.604 6 131862699.72706  25092638.528 7  98468902.21707  25092637.747 8 101037652.34208
E31  25466549.915 7 133827615.77207  25466554.342 7  99936227.60407  25466553.574 8 102543247.67308
E33  24232637.523 7 127343353.40707  24232637.623 6  95094080.26506  24232637.029 7  97574787.37307
G02  22557130.192 5 118538530.57805  22557126.734 2  92367661.23702
G05  20569734.959 3                                                  20569738.953 7  84229648.26407
G12  24475395.222 6 128619233.60206  24475391.199 2 100222639.69702
G13  24894245.731 6 130820127.35806  24894269.454 1 101937903.20801
G15  24985375.809 6 131299079.26606  24985379.115 3 102310948.62903  24985381.307 5 102310959.69105
G25  22078338.930 7 116022461.20307  22078342.174 5  90407125.98905  22078344.129 7  90407121.99807
G29  20622142.359 7 108370093.06507  20622142.009 6  84444228.58006  20622142.183 7  84444227.57207
R02  20674333.457 8 110322203.29608  20674339.865 7  85806180.06807
R03  22805713.515 7 122080888.54107  22805719.922 7  94951748.93307
R09  23380464.220 6 124850366.92206  23380469.386 6  97105866.37106
R15  22682237.042 7 121207012.16807  22682244.955 7  94272131.09907
R17  19998517.035 7 107016105.34207  19998521.829 6  83234764.84106
R18  20635037.367 6 110151238.60206  20635051.128 5  85673210.89505
> 2022 08 16 16 25 20.0000000  0 22
C20  24458858.782 7
C27  25282442.810 6 131652300.11606
C29  23095324.004 7 120263413.06807
C30  21857764.026 8 113819110.36108
C32  23145364.789 6 120523996.18206
E12  24239281.016 7 127378280.39207  24239280.472 7  95120141.68107  24239280.109 7  97601530.78407
E24  25092724.909 6 131863159.04006  25092725.965 7  98469245.20107  25092725.182 8 101038004.27308
E31  25467091.817 7 133830463.97307  25467096.305 7  99938354.50807  25467095.608 8 102545430.05908
E33  24232920.505 7 127344840.37407  24232920.609 6  95095190.67106  24232920.072 7  97575926.74107
G02  22557570.040 5 118540840.84005  22557566.428 2  92369461.45802
G05  20569822.540 3                                                  20569826.143 7  84230004.81007
G12  24476204.402 6 128623488.31806  24476200.701 2 100225955.05802
G13  24893747.791 6 130817512.22406  24893771.584 1 101935865.46001
G15  24984777.752 6 131295936.52206  24984781.138 3 102308499.74003  24984782.765 5 102308510.81605
G25  22078962.872 7 116025739.07607  22078965.952 5  90409680.17205  22078967.944 7  90409676.17007
G29  20622029.926 7 108369501.95807  20622029.525 6  84443767.97506  20622029.739 7  84443766.97907
R02  20674091.832 8 110320913.52008  20674098.123 7  85805176.91407
R03  22804978.772 7 122076954.94907  22804985.182 7  94948689.46807
R09  23380064.457 6 124848231.97006  23380069.461 6  97104205.86606
R15  22683046.963 7 121211340.19407  22683054.751 7  94275497.34107
R17  19998767.856 7 107017448.81607  19998772.883 6  83235809.77406
R18  20634782.793 6 110149877.50806  20634796.618 5  85672152.28505
> 2022 08 16 16 25 21.0000000  0 22
C20  24458308.230 7 127360977.68607
C27  25282987.530 6 131655135.28706
C29  23095023.460 7 120261847.72607
C30  21857963.258 8 113820147.79008
C32  23145297.323 6 120523646.01006
E12  24239143.382 7 127377557.11507  24239142.839 7  95119601.57307  24239142.493 7  97600976.59107
E24  25092812.075 6 131863617.58806  25092813.229 7  98469587.62907  25092812.472 8 101038355.63708
E31  25467633.606 7 133833311.21907  25467638.120 7  99940480.70207  25467637.449 8 102547611.71308
E33  24233203.281 7 127346326.23907  24233203.369 6  95096300.24006  24233202.860 7  97577065.25707
G02  22558009.912 5 118543150.03405  22558005.899 2  92371260.81802
G05  20569909.392 4                                                  20569913.097 7  84230360.91907
G12  24477013.506 6 128627741.82706  24477009.845 2 100229269.45202
G13  24893249.631 6 130814895.96606  24893273.472 1 101933826.81201
G15  24984179.632 6 131292792.48106  24984182.862 3 102306049.83403  24984184.048 6 102306060.87006
G25  22079586.508 7 116029016.09207  22079589.551 5  90412233.69105  22079591.716 7  90412229.68507
G29  20621917.258 7 108368910.03607  20621916.885 6  84443306.73806  20621917.046 7  84443305.74107
R02  20673850.125 8 110319623.33408  20673856.317 7  85804173.43907
R03  22804243.126 7 122073020.28007  22804250.372 7  94945629.17807
R09  23379664.055 6 124846096.47506  23379669.853 6  97102544.92306
R15  22683856.658 7 121215667.18607  22683864.225 7  94278862.78707
R17  19999018.812 7 107018791.39507  19999023.525 6  83236853.99706
R18  20634527.492 6 110148515.37706  20634541.232 5  85671092.85505
> 2022 08 16 16 25 22.0000000  0 22
C20  24457758.109 7 127358102.74407
C27  25283532.058 6 131657970.41106
C29  23094722.775 7 120260282.36907
C30  21858162.426 8 113821185.32408
C32  23145230.171 6 120523296.25106
E12  24239005.804 7 127376833.84207  24239005.268 7  95119061.45507  24239004.842 7  97600422.38607
E24  25092899.386 6 131864076.46706  25092900.569 7  98469930.29307  25092899.801 8 101038707.24008
E31  25468175.396 7 133836158.57607  25468179.945 7  99942606.96807  25468179.332 8 102549793.45308
E33  24233486.058 7 127347812.06707  24233486.169 6  95097409.78106  24233485.630 7  97578203.75307
G02  22558449.404 5 118545459.17905  22558445.393 2  92373060.15702
G05  20569996.499 4                                                  20570000.133 7  84230717.43507
G12  24477822.763 6 128631995.23206  24477818.932 2 100232583.76302
G13  24892751.476 6 130812279.61106  24892775.356 1 101931788.10901
G15  24983581.168 6 131289648.21206  24983584.559 3 102303599.75203  24983585.881 6 102303610.82306
G25  22080210.140 7 116032293.32507  22080213.186 5  90414787.37505  22080215.249 7  90414783.37607
G29  20621804.690 7 108368318.36507  20621804.280 6  84442845.69806  20621804.483 7  84442844.69107
R02  20673608.484 8 110318333.83008  20673614.773 7  85803170.49407
R03  22803507.748 7 122069085.61307  22803515.319 7  94942568.88407
R09  23379263.838 6 124843961.42306  23379270.625 6  97100884.32406
R15  22684666.538 7 121219994.28507  22684673.858 7  94282228.29007
R17  19999269.721 7 107020134.11407  19999274.512 6  83237898.33306
R18  20634272.178 6 110147153.35606  20634285.980 5  85670033.51105
> 2022 08 16 16 25 23.0000000  0 22
C20  24457207.992 7 127355227.59807
C27  25284076.542 6 131660805.22406
C29  23094422.119 7 120258716.76207
C30  21858361.558 8 113822222.71808
C32  23145162.942 6 120522946.65206
E12  24238868.039 7 127376110.32007  24238867.596 7  95118521.18007  24238867.186 7  97599868.01207
E24  25092986.706 6 131864535.41606  25092987.905 7  98470273.01507  25092987.157 8 101039058.90708
E31  25468717.132 7 133839005.80507  25468721.751 7  99944733.13907  25468721.161 8 102551975.09008
E33  24233768.714 7 127349297.61907  24233768.901 6  95098519.12906  24233768.425 7  97579342.02607
G02  22558888.612 5 118547768.03805  22558884.810 2  92374859.28902
G05  20570082.171 3                                                  20570087.132 7  84231074.15607
G12  24478631.925 6 128636248.28906  24478627.960 2 100235897.83502
G13  24892252.998 6 130809662.93206  24892277.087 1 101929749.13801
G15  24982982.494 6 131286503.44306  24982986.175 3 102301149.28903  24982987.668 6 102301160.35106
G25  22080833.844 7 116035570.54407  22080836.821 5  90417341.05305  22080838.842 7  90417337.06207
G29  20621692.009 7 108367726.69207  20621691.694 6  84442384.65706  20621691.965 7  84442383.65307
R02  20673366.892 8 110317044.72608  20673373.324 7  85802167.86607
R03  22802772.368 7 122065150.72207  22802780.146 7  94939508.42207
R09  23378863.872 5 124841826.66005  23378870.961 6  97099223.95106
R15  22685476.551 7 121224321.21307  22685483.698 7  94285593.67007
R17  19999520.423 7 107021476.68607  19999525.504 6  83238942.55506
R18  20634016.998 6 110145791.14406  20634031.085 5  85668973.98705
> 2022 08 16 16 25 24.0000000  0 22
C20  24456657.862 7 127352352.42107
C27  25284621.120 6 131663639.87706
C29  23094121.595 7 120257151.12007
C30  21858560.770 8 113823260.18908
C32  23145095.678 7 120522597.39007
E12  24238730.315 7 127375386.78107  24238729.872 7  95117980.87207  24238729.513 7  97599313.58907
E24  25093074.272 6 131864994.67106  25093075.322 7  98470615.96507  25093074.495 8 101039410.80608
E31  25469258.974 7 133841853.07307  25469263.635 7  99946859.36807  25469263.002 8 102554156.78208
E33  24234051.447 7 127350783.08207  24234051.519 7  95099628.38107  24234051.121 7  97580480.23507
G02  22559327.410 5 118550076.84905  22559324.313 2  92376658.38902
G05  20570170.633 4                                                  20570174.571 7  84231431.21307
G12  24479441.267 6 128640501.16206  24479437.194 2 100239211.76702  24479506.169 3
G13  24891754.336 6 130807046.21506  24891778.765 1 101927710.13901
G15  24982383.815 5 131283358.45005  24982387.724 3 102298698.65303  24982389.369 6 102298709.69506
G25  22081457.512 7 116038847.92407  22081460.491 5  90419894.85405  22081462.552 7  90419890.85607
G29  20621579.422 7 108367135.25807  20621579.139 6  84441923.79906  20621579.442 7  84441922.74507
R02  20673125.268 8 110315756.22708  20673132.023 7  85801165.68307
R03  22802037.066 7 122061215.80407  22802045.013 7  94936447.95507
R09  23378463.233 5 124839692.31305  23378471.141 6  97097563.91606
R15  22686286.325 7 121228648.17807  22686293.241 7  94288959.05307
R17  19999771.335 7 107022819.34107  19999776.428 6  83239986.85206
R18  20633761.841 6 110144428.95606  20633775.567 5  85667914.51205
> 2022 08 16 16 25 25.0000000  0 23
C20  24456107.724 7 127349477.13907
C27  25285165.982 6 131666474.40006
C29  23093820.886 7 120255585.36807
C30  21858759.965 8 113824297.62308
C32  23145028.846 7 120522248.42307
E10  26039933.871 6 136840775.63916  26039934.734 6 102186298.57516  26039935.448 7 104852027.30017
E12  24238592.467 6 127374663.18206  24238592.127 7  95117440.52707  24238591.689 7  97598759.15407
E24  25093161.811 5 131865454.22205  25093162.611 7  98470959.12807  25093162.049 8 101039762.88408
E31  25469800.717 7 133844700.38407  25469805.385 7  99948985.58007  25469804.826 8 102556338.47208
E33  24234333.991 7 127352268.46207  24234334.091 7  95100737.55507  24234333.920 7  97581618.34107
G02  22559766.436 6 118552385.41306  22559763.779 2  92378457.26602
G05  20570259.136 5                  20570258.497 4                  20570261.923 7  84231788.61707
G12  24480250.027 6 128644753.79906  24480246.267 2 100242525.48802  24480312.501 4
G13  24891255.392 5 130804429.23605  24891280.519 1 101925670.86101
G15  24981784.313 5 131280213.05405  24981789.202 3 102296247.71003  24981791.132 6 102296258.75806
G25  22082081.228 7 116042125.43607  22082084.202 5  90422448.76205  22082086.167 7  90422444.76707
G29  20621467.050 7 108366543.91807  20621466.601 6  84441463.00106  20621466.926 7  84441461.97507
R02  20672883.777 8 110314468.24508  20672890.501 7  85800163.93307
R03  22801301.710 7 122057280.83407  22801310.267 7  94933387.40907
R09  23378062.825 5 124837558.44305  23378071.426 6  97095904.21406
R15  22687096.401 7 121232975.09607  22687102.711 7  94292324.47407
R17  20000022.215 7 107024162.06707  20000027.720 7  83241031.18107
R18  20633507.153 7 110143066.71407  20633519.794 5  85666855.03705
> 2022 08 16 16 25 26.0000000  0 23
C20  24455557.476 7 127346601.96307
C27  25285710.902 6 131669308.93906
C29  23093520.411 7 120254019.58507
C30  21858959.142 8 113825335.24108
C32  23144962.024 7 120521899.96607
E10  26039641.453 6 136839239.19006  26039641.825 6 102185151.21006  26039643.286 7 104850850.01307
E12  24238454.820 6 127373939.53906  24238454.456 7  95116900.15707  24238453.781 7  97598204.68507
E24  25093248.523 5 131865914.00805  25093249.834 7  98471302.45907  25093249.687 8 101040115.19808
E31  25470342.429 7 133847547.85107  25470347.082 7  99951111.93707  25470346.738 8 102558520.29108
E33  24234616.685 7 127353753.78407  24234616.776 7  95101846.77207  24234616.678 7  97582756.49807
G02  22560206.351 6 118554694.01706  22560203.161 2  92380256.19402
G05  20570347.356 5 108097898.05715  20570345.873 3  84232127.48513  20570349.500 7  84232146.45407
G12  24481058.997 6 128649006.41706  24481055.354 2 100245839.21802
G13  24890757.490 5 130801812.28005  24890782.559 1 101923631.61501
G15  24981185.460 5 131277067.50005  24981190.631 3 102293796.63903  24981193.036 6 102293807.66906
G25  22082705.025 7 116045403.21607  22082707.967 5  90425002.87705  22082709.933 7  90424998.87307
G29  20621354.825 7 108365952.92907  20621354.131 6  84441002.48306  20621354.451 7  84441001.45307
R02  20672642.367 8 110313180.93308  20672649.352 7  85799162.68007
R03  22800566.465 7 122053345.88407  22800575.236 7  94930326.91807
R09  23377662.472 5 124835425.13105  23377671.508 6  97094244.91106
R15  22687906.307 7 121237302.15507  22687912.756 7  94295689.97807
R17  20000273.168 7 107025505.00707  20000278.728 7  83242075.69807
R18  20633251.913 6 110141704.61006  20633265.266 5  85665795.62205
> 2022 08 16 16 25 27.0000000  0 23
C20  24455006.886 7 127343726.16307
C27  25286255.125 6 131672142.86606
C29  23093219.608 7 120252453.19907
C30  21859158.196 8 113826372.33008
C32  23144895.119 7 120521551.20407
E10  26039348.696 6 136837701.96906  26039349.215 6 102184003.26106  26039350.484 7 104849672.15107
E12  24238316.931 7 127373215.26807  24238316.641 7  95116359.29007  24238315.850 7  97597649.72807
E24  25093335.629 6 131866373.41206  25093337.131 7  98471645.54807  25093337.237 8 101040467.24508
E31  25470884.046 7 133850394.81107  25470888.741 7  99953237.92107  25470888.506 8 102560701.73208
E33  24234899.162 7 127355238.47807  24234899.330 7  95102955.47507  24234899.245 7  97583894.11607
G02  22560645.786 5 118557001.94705  22560642.368 2  92382054.56902
G05                                                                  20570436.796 7  84232504.26307
G12  24481868.003 6 128653258.27006  24481864.364 2 100249152.32402
G13  24890259.852 5 130799194.52005  24890284.385 1 101921591.74501
G15  24980587.108 6 131273921.10306  24980591.863 3 102291344.89603  24980595.000 6 102291355.93806
G25  22083328.781 7 116048680.58707  22083331.642 5  90427556.67205  22083333.505 7  90427552.67407
G29  20621242.574 7 108365361.51307  20621241.580 6  84440541.63706  20621241.943 7  84440540.64507
R02  20672400.900 8 110311893.56408  20672408.013 7  85798161.40507
R03  22799831.447 7 122049410.32407  22799840.260 7  94927265.90907
R09  23377261.575 5 124833291.56005  23377272.240 6  97092585.53606
R15  22688716.065 7 121241628.71707  22688722.854 7  94299055.03107
R17  20000524.267 7 107026847.43207  20000529.526 6  83243119.79906
R18  20632996.664 6 110140341.92406  20633011.130 5  85664735.75805
> 2022 08 16 16 25 28.0000000  0 22
C20  24454456.011 7 127340850.22607
C27  25286799.410 6 131674976.51706
C29  23092918.779 7 120250886.65207
C30  21859357.325 8 113827409.35308
C32  23144827.999 7 120521202.70207
E12  24238179.037 7 127372490.88807  24238178.776 7  95115818.36107  24238178.038 7  97597094.68207
E24  25093423.358 6 131866833.08206  25093424.728 7  98471988.79907  25093424.640 8 101040819.45908
E31  25471425.761 7 133853241.70907  25471430.520 7  99955363.85207  25471430.220 8 102562883.11708
E33  24235181.607 7 127356722.96507  24235181.786 6  95104064.02606  24235181.713 7  97585031.57807
G02  22561085.628 6 118559309.70106  22561081.531 2  92383852.80702
G05                                                                  20570524.240 7  84232862.28207
G12  24482677.196 6 128657509.81706  24482673.379 2 100252465.20502
G13  24889762.550 5 130796576.62005  24889786.170 1 101919551.83401
G15  24979988.693 6 131270774.31806  24979993.108 3 102288892.85803  24979996.317 5 102288903.89005
G25  22083952.587 7 116051958.01807  22083955.321 5  90430110.51305  22083957.182 7  90430106.51707
G29  20621130.245 7 108364770.22007  20621129.061 6  84440080.89306  20621129.372 7  84440079.88507
R02  20672159.708 8 110310606.68408  20672166.883 7  85797160.50507
R03  22799096.326 7 122045474.61207  22799105.290 7  94924204.81207
R09  23376862.500 5 124831158.41605  23376872.909 6  97090926.43906
R15  22689525.461 7 121245955.10307  22689532.762 7  94302420.01007
R17  20000775.031 7 107028189.80807  20000780.276 6  83244163.88206
R18  20632741.427 6 110138979.15306  20632755.541 5  85663675.82105
> 2022 08 16 16 25 29.0000000  0 22
C20  24453904.973 7 127337974.34607
C27  25287343.601 6 131677810.09306
C29  23092618.035 7 120249320.13907
C30  21859556.602 8 113828446.52108
C32  23144761.090 7 120520854.63607
E12  24238041.117 7 127371766.55807  24238040.939 7  95115277.45507  24238040.293 7  97596539.66807
E24  25093511.167 6 131867293.10206  25093512.448 7  98472332.32507  25093512.101 8 101041171.94308
E31  25471967.398 7 133856088.75507  25471972.371 7  99957489.88907  25471971.973 8 102565064.62308
E33  24235464.043 7 127358207.47107  24235464.280 6  95105172.58506  24235464.203 7  97586169.05307
G02  22561525.450 6 118561617.42106  22561520.751 2  92385651.04002
G05                                                                  20570611.692 7  84233220.74607
G12  24483486.328 6 128661761.29406  24483482.224 2 100255778.03002  24483540.409 3
G13  24889264.565 5 130793958.70205  24889287.781 1 101917511.95001
G15  24979390.046 6 131267627.31306  24979394.371 3 102286440.64703  24979397.205 5 102286451.68305
G25  22084576.451 7 116055235.70307  22084579.063 5  90432664.55205  22084580.807 7  90432660.56407
G29  20621017.751 7 108364179.20207  20621016.582 6  84439620.36106  20621016.859 7  84439619.35007
R02  20671918.703 8 110309320.49508  20671925.820 7  85796160.14307
R03  22798361.052 7 122041538.98007  22798370.090 7  94921143.77107
R09  23376461.933 5 124829025.80105  23376473.161 6  97089267.74606
R15  22690334.939 7 121250281.63507  22690342.619 7  94305785.08107
R17  20001025.776 7 107029532.36007  20001031.306 6  83245208.08706
R18  20632486.017 6 110137616.49306  20632499.912 5  85662615.96605
> 2022 08 16 16 25 30.0000000  0 22
C20  24453353.732 8 127335098.62808
C27  25287887.791 6 131680643.80606
C29  23092317.220 7 120247753.75907
C30  21859755.946 8 113829483.92908
C32  23144694.251 7 120520507.10907
E12  24237903.173 7 127371042.35907  24237903.113 7  95114736.66007  24237902.589 7  97595984.76307
E24  25093598.861 6 131867753.58006  25093600.237 7  98472676.19507  25093599.675 8 101041524.78308
E31  25472509.240 7 133858936.06407  25472514.248 7  99959616.12007  25472513.757 8 102567246.32008
E33  24235746.479 7 127359692.07507  24235746.820 6  95106281.21306  24235746.669 7  97587306.61907
G02  22561965.466 6 118563925.24006  22561959.896 2  92387449.34202
G05                                                                  20570699.109 7  84233579.73107
G12  24484295.472 6 128666012.82006  24484290.957 2 100259090.90802  24484347.040 4
G13  24888765.342 5 130791340.88505  24888789.946 1 101915472.08401
G15  24978791.363 6 131264480.24206  24978795.639 3 102283988.39203  24978798.760 5 102283999.45005
G25  22085200.353 7 116058513.77907  22085202.891 5  90435218.89205  22085204.471 7  90435214.88507
G29  20620905.457 7 108363588.57107  20620904.179 6  84439160.13006  20620904.422 7  84439159.12207
R02  20671677.808 8 110308035.10008  20671685.002 7  85795160.38607
R03  22797625.769 7 122037603.53107  22797635.111 7  94918082.87207
R09  23376063.312 5 124826893.87605  23376074.405 6  97087609.57206
R15  22691144.344 7 121254608.37507  22691152.171 7  94309150.32907
R17  20001276.631 7 107030875.21607  20001282.476 6  83246252.52606
R18  20632230.912 6 110136254.05206  20632244.276 5  85661556.26805
> 2022 08 16 16 25 31.0000000  0 22
C20  24452802.327 8 127332222.57208
C27  25288432.146 6 131683477.09406
C29  23092016.303 7 120246186.97007
C30  21859955.199 8 113830521.07908
C32  23144627.370 7 120520159.62107
E12  24237765.154 7 127370317.80407  24237765.201 7  95114195.59907  24237764.803 7  97595429.57707
E24  25093686.421 6 131868214.00506  25093687.968 7  98473020.03207  25093687.218 8 101041877.58208
E31  25473050.959 7 133861783.10907  25473056.084 7  99961742.15407  25473055.519 8 102569427.81808
E33  24236028.909 7 127361176.28307  24236029.271 6  95107389.55606  24236029.037 7  97588443.86407
G02  22562404.870 6 118566232.67406  22562398.947 2  92389247.38302
G05                                                                  20570786.865 7  84233938.83107
G12  24485104.416 6 128670263.82706  24485099.713 2 100262403.37402  24485155.492 4
G13  24888266.600 4 130788722.50404  24888291.941 1 101913431.74401
G15  24978192.635 6 131261332.56106  24978196.754 3 102281535.66103  24978200.029 5 102281546.67205
G25  22085824.295 7 116061791.68207  22085826.695 5  90437773.09805  22085828.302 7  90437769.10407
G29  20620793.147 7 108362997.81507  20620791.744 6  84438699.79806  20620792.069 7  84438698.79907
R02  20671437.042 8 110306749.99908  20671444.223 7  85794160.86307
R03  22796890.557 7 122033667.70507  22796899.775 7  94915021.68107
R09  23375664.185 5 124824762.04105  23375674.898 6  97085951.50206
R15  22691953.635 7 121258934.84107  22691961.829 7  94312515.34507
R17  20001527.482 7 107032217.85007  20001533.607 6  83247296.79706
R18  20631975.573 6 110134891.30506  20631988.960 5  85660496.38105
> 2022 08 16 16 25 32.0000000  0 23
C20  24452250.555 8 127329345.98608
C27  25288976.178 6 131686309.73506
C29  23091715.441 7 120244619.65407
C30  21860154.417 8 113831557.78108
C32  23144560.469 7 120519811.97607
E12  24237627.177 7 127369592.70207  24237627.195 7  95113654.12607  24237626.868 7  97594873.98907
E24  25093774.128 6 131868674.23406  25093775.585 7  98473363.68707  25093774.727 8 101042230.21008
E31  25473592.715 7 133864629.71107  25473597.811 7  99963867.85807  25473597.187 8 102571608.97508
E33  24236311.287 7 127362659.90707  24236311.615 6  95108497.45406  24236311.285 7  97589580.66107
G02  22562843.666 6 118568539.47606  22562837.939 2  92391044.89002
G05                                                                  20570874.562 7  84234297.89707
G12  24485913.229 6 128674514.19006  24485908.388 1 100265715.34201  24485963.818 4
G13  24887766.829 4 130786103.64504  24887793.718 1 101911390.97201
G15  24977593.284 6 131258184.11806  24977597.704 3 102279082.32003  24977600.428 5 102279093.37405
G25  22086447.970 7 116065069.25907  22086450.437 5  90440327.05505  22086451.944 7  90440323.06307
G29  20620680.809 7 108362406.77307  20620679.252 6  84438239.24806  20620679.641 7  84438238.23507
J02  43751114.476 6 229913658.09716
R02  20671196.243 8 110305465.01208  20671203.486 7  85793161.43207
R03  22796154.994 7 122029731.33407  22796164.448 7  94911960.06407
R09  23375265.681 6 124822630.13006  23375275.183 6  97084293.35806
R15  22692762.761 6 121263260.82006  22692771.326 7  94315880.01107
R17  20001778.148 7 107033560.03607  20001784.060 6  83248340.72006
R18  20631720.212 6 110133528.06106  20631733.043 5  85659436.09105
> 2022 08 16 16 25 33.0000000  0 23
C20  24451698.529 7 127326468.95707
C27  25289519.998 5 131689141.86905
C29  23091414.347 7 120243051.83307
C30  21860353.464 8 113832594.11508
C32  23144493.565 7 120519464.25207
E12  24237489.074 7 127368867.12007  24237489.103 7  95113112.29707  24237488.832 7  97594318.02307
E24  25093861.796 6 131869134.26706  25093863.182 7  98473707.22507  25093862.237 8 101042582.71008
E31  25474134.241 7 133867475.94207  25474139.454 7  99965993.29507  25474138.807 8 102573789.86208
E33  24236593.485 7 127364143.03007  24236593.836 6  95109604.98106  24236593.490 7  97590717.07907
G02  22563282.337 6 118570845.76206  22563276.829 2  92392841.99102
G05                                                                  20570962.146 7  84234656.98807
G12  24486722.052 6 128678763.92906  24486716.888 1 100269026.80801  24486773.490 4
G13  24887268.464 5 130783484.15205  24887295.311 1 101909349.88501
G15  24976993.636 6 131255034.94106  24976998.435 3 102276628.41303  24977000.853 5 102276639.43705
G25  22087071.833 7 116068346.58507  22087074.126 5  90442880.81705  22087075.509 7  90442876.81707
G29  20620568.132 7 108361815.48607  20620566.723 6  84437778.50606  20620567.104 7  84437777.50507
J02  43751137.469 6 229913777.79506
R02  20670955.437 8 110304180.21208  20670962.734 7  85792162.14507
R03  22795419.527 7 122025794.49007  22795428.939 7  94908898.09007
R09  23374866.878 5 124820498.25705  23374876.024 6  97082635.21506
R15  22693571.949 6 121267586.42006  22693580.663 7  94319244.35207
R17  20002028.927 7 107034901.83507  20002034.820 6  83249384.32006
R18  20631464.372 6 110132164.39606  20631477.931 5  85658375.46305
> 2022 08 16 16 25 34.0000000  0 23
C20  24451146.286 7 127323591.81707
C27  25290064.144 6 131691973.81106
C29  23091113.243 7 120241483.88407
C30  21860552.473 8 113833630.42108
C32  23144426.874 7 120519116.80507
E12  24237350.950 7 127368141.42607  24237351.007 7  95112570.38007  24237350.750 7  97593761.97407
E24  25093949.409 6 131869594.52206  25093950.751 7  98474050.90707  25093949.744 8 101042935.36108
E31  25474675.832 7 133870322.16907  25474681.067 7  99968118.71407  25474680.419 8 102575970.72808
E33  24236875.692 7 127365625.98107  24236876.008 6  95110712.36906  24236875.654 7  97591853.36707
G02  22563721.162 6 118573151.88006  22563715.500 2  92394638.99102
G05                                                                  20571049.946 7  84235016.39007
G12  24487531.174 6 128683013.43906  24487525.429 1 100272338.13601  24487581.928 4
G13  24886769.044 5 130780864.46005
G15  24976394.059 6 131251885.43906  24976399.095 2 102274174.25802  24976401.162 5 102274185.28305
G25  22087695.572 7 116071623.99307  22087697.828 5  90445434.64205  22087699.048 7  90445430.64307
G29  20620455.537 7 108361224.32607  20620454.222 6  84437317.86406  20620454.743 7  84437316.86107
J02  43751160.275 6 229913897.23406
R02  20670714.788 8 110302895.97408  20670722.025 7  85791163.29607
R03  22794683.930 7 122021857.53507  22794693.537 7  94905836.02407
R09  23374468.220 6 124818366.78606  23374476.425 6  97080977.39406
R15  22694381.310 6 121271911.95106  22694390.254 7  94322608.66507
R17  20002279.542 7 107036243.66307  20002285.156 6  83250427.98306
R18  20631208.546 6 110130800.68706  20631222.683 5  85657314.79905
> 2022 08 16 16 25 35.0000000  0 23
C20  24450593.689 7 127320714.96507
C27  25290608.435 6 131694805.95406
C29  23090812.303 7 120239916.18807
C30  21860751.584 8 113834667.10008
C32  23144360.140 7 120518770.02607
E12  24237212.917 7 127367416.00307  24237212.961 7  95112028.66607  24237212.721 7  97593206.12707
E24  25094037.154 6 131870055.34006  25094038.442 7  98474395.03307  25094037.406 8 101043288.46108
E31  25475217.571 7 133873168.76807  25475222.768 7  99970244.42407  25475222.089 8 102578151.88608
E33  24237157.943 7 127367109.15607  24237158.224 6  95111819.93906  24237157.915 7  97592989.82507
G02  22564159.742 6 118575458.20206  22564154.376 2  92396436.14402
G05                                                                  20571137.900 7  84235376.38907
G12  24488340.180 6 128687263.07806  24488333.925 1 100275649.50601  24488391.565 4
G13  24886270.663 5 130778244.96305
G15  24975794.993 6 131248735.94906  24975799.768 2 102271720.11502  24975801.765 5 102271731.13305
G25  22088319.243 7 116074901.89807  22088321.615 5  90447988.85105  22088322.653 7  90447984.85207
G29  20620343.089 7 108360633.68407  20620341.810 6  84436857.62206  20620342.328 7  84436856.62007
J02  43751182.749 6 229914016.75106
R02  20670474.296 8 110301612.69408  20670481.436 7  85790165.19007
R03  22793948.540 7 122017920.85407  22793958.006 7  94902774.15207
R09  23374069.207 6 124816236.01206  23374077.543 6  97079320.14706
R15  22695190.728 6 121276237.83706  22695199.534 7  94325973.22507
R17  20002530.408 7 107037585.92707  20002535.783 6  83251471.96606
R18  20630953.157 6 110129437.32106  20630967.119 5  85656254.38005
> 2022 08 16 16 25 36.0000000  0 23
C20  24450040.676 7 127317837.79007
C27  25291152.571 6 131697637.68206
C29  23090511.228 7 120238348.11807
C30  21860950.617 8 113835703.51508
C32  23144293.581 7 120518423.28607
E12  24237074.801 7 127366690.21507  24237074.854 7  95111486.69207  24237074.608 7  97592650.00807
E24  25094124.894 6 131870516.11606  25094126.125 7  98474739.12207  25094125.101 8 101043641.52608
E31  25475759.288 7 133876015.11207  25475764.432 7  99972369.94407  25475763.769 8 102580332.85708
E33  24237440.090 7 127368591.94807  24237440.363 6  95112927.21806  24237440.126 7  97594125.98407
G02  22564598.709 6 118577764.12606  22564593.252 2  92398232.97502
G05                                                                  20571225.891 7  84235736.52307
G12  24489148.967 6 128691512.26206  24489142.484 1 100278960.57101  24489200.785 4
G13  24885773.077 5 130775625.01205
G15  24975195.472 6 131245585.87006  24975200.338 2 102269265.51002  24975202.768 5 102269276.53605
G25  22088942.884 7 116078179.66407  22088945.370 5  90450542.95505  22088946.492 7  90450538.94707
G29  20620230.594 7 108360042.93007  20620229.388 6  84436397.29306  20620229.914 7  84436396.29507
J02  43751205.493 6 229914135.74406
R02  20670233.981 8 110300329.71308  20670241.007 7  85789167.31907
R03  22793213.065 7 122013983.81007  22793222.527 7  94899712.01907
R09  23373670.623 6 124814105.43006  23373678.578 6  97077663.02706
R15  22696000.203 6 121280563.40906  22696009.140 7  94329337.56907
R17  20002781.196 7 107038928.00807  20002786.611 6  83252515.79506
R18  20630697.614 6 110128073.65106  20630711.644 5  85655193.74505
> 2022 08 16 16 25 37.0000000  0 23
C20  24449487.448 7 127314960.54007
C27  25291696.051 5 131700469.28105
C29  23090210.112 7 120236779.96207
C30  21861149.612 8 113836739.95908
C32  23144227.100 7 120518076.86207
E12  24236936.666 7 127365964.35707  24236936.719 7  95110944.64707  24236936.428 7  97592093.83407
E24  25094212.614 6 131870977.15106  25094213.830 7  98475083.39807  25094212.806 8 101043994.77908
E31  25476300.932 7 133878861.50107  25476306.075 7  99974495.48907  25476305.432 8 102582513.85108
E33  24237722.218 7 127370074.64007  24237722.512 6  95114034.42006  24237722.277 7  97595262.06807
G02  22565037.242 6 118580069.92606  22565032.062 2  92400029.71302
G05                                                                  20571314.100 7  84236096.99607
G12  24489957.633 6 128695761.25106  24489950.887 1 100282271.46401  24490008.615 4
G13  24885276.061 5 130773004.91805
G15  24974595.880 6 131242435.48006  24974600.859 2 102266810.66702  24974603.245 5 102266821.73105
G25  22089566.582 7 116081457.57507  22089569.157 5  90453097.17305  22089570.129 7  90453093.16407
G29  20620118.112 7 108359452.35807  20620117.008 6  84435937.10906  20620117.565 7  84435936.10307
J02  43751228.038 6 229914254.48806
R02  20669993.805 8 110299047.31308  20670000.773 7  85788169.89607
R03  22792477.651 7 122010046.73007  22792487.196 7  94896649.84907
R09  23373271.847 6 124811975.27906  23373279.819 6  97076006.23906
R15  22696809.579 6 121284888.98806  22696818.937 7  94332701.91707
R17  20003032.341 7 107040270.11407  20003037.435 6  83253559.66306
R18  20630442.477 6 110126709.97706  20630455.736 5  85654133.10005
> 2022 08 16 16 25 38.0000000  0 23
C20  24448934.219 7 127312083.24207
C27  25292239.971 5 131703300.73205
C29  23089908.959 7 120235211.70607
C30  21861348.646 8 113837776.41408
C32  23144160.686 7 120517730.74607
E12  24236798.624 7 127365238.41707  24236798.644 7  95110402.54907  24236798.291 7  97591537.58907
E24  25094300.312 6 131871438.41006  25094301.576 7  98475427.84107  25094300.612 8 101044348.21008
E31  25476842.606 7 133881707.89007  25476847.704 7  99976621.04407  25476847.087 8 102584694.85808
E33  24238004.311 7 127371557.19707  24238004.609 6  95115141.52306  24238004.434 7  97596398.05907
G02  22565476.082 6 118582375.58406  22565470.862 2  92401826.32102
G05                                                                  20571402.287 7  84236457.80707
G12  24490766.317 6 128700010.02406  24490759.325 1 100285582.18401  24490815.385 4
G13  24884778.714 6 130770384.67006
G15  24973996.378 6 131239284.80106  24974001.236 2 102264355.59702  24974003.290 5 102264366.61205
G25  22090190.323 7 116084735.61207  22090192.975 5  90455651.48305  22090193.920 7  90455647.47507
G29  20620005.819 7 108358861.94007  20620004.654 6  84435477.04306  20620005.167 7  84435476.03307
J02  43751250.862 6 229914372.95506
R02  20669753.587 8 110297765.47908  20669760.515 7  85787172.91607
R03  22791742.319 7 122006109.56807  22791751.685 7  94893587.60207
R09  23372873.326 6 124809845.54006  23372880.826 6  97074349.77006
R15  22697619.419 6 121289214.55806  22697628.740 7  94336066.23807
R17  20003283.393 7 107041612.20807  20003288.258 6  83254603.49706
R18  20630187.570 6 110125346.28106  20630200.083 5  85653072.45105
> 2022 08 16 16 25 39.0000000  0 23
C20  24448380.703 7 127309205.37807
C27  25292783.474 5 131706131.51905
C29  23089607.724 7 120233642.85807
C30  21861547.512 8 113838812.38608
C32  23144094.129 7 120517384.45207
E12  24236660.419 7 127364511.87907  24236660.409 7  95109860.00407  24236659.942 7  97590980.89407
E24  25094388.114 6 131871899.40906  25094389.289 7  98475772.09807  25094388.338 8 101044701.45208
E31  25477384.135 7 133884553.82207  25477389.281 7  99978746.24507  25477388.672 8 102586875.49208
E33  24238286.303 7 127373039.13007  24238286.616 6  95116248.15706  24238286.480 7  97597533.56507
G02  22565914.588 6 118584680.63206  22565909.550 2  92403622.45102
G05                                                                  20571490.344 7  84236818.55307
G12  24491574.813 6 128704258.08606  24491567.624 1 100288892.31301  24491622.679 4
G13  24884280.864 6 130767763.74406
G15  24973396.571 6 131236133.25806  24973401.444 2 102261899.84202  24973403.465 5 102261910.88205
G25  22090814.002 7 116088013.27507  22090816.731 5  90458205.50605  22090817.751 7  90458201.50307
G29  20619893.510 7 108358271.18107  20619892.228 6  84435016.71106  20619892.825 7  84435015.69807
J02  43751273.484 6 229914490.65106
R02  20669513.441 8 110296483.68008  20669520.128 7  85786175.95907
R03  22791007.022 7 122002171.81807  22791015.891 7  94890524.91607
R09  23372475.201 6 124807715.68706  23372481.485 6  97072693.21206
R15  22698428.554 6 121293539.61806  22698438.097 7  94339430.17907
R17  20003534.258 7 107042953.81307  20003538.927 6  83255646.97906
R18  20629932.341 6 110123982.06406  20629943.294 5  85652011.39605
> 2022 08 16 16 25 40.0000000  0 23
C20  24447827.161 7 127306327.10507
C27  25293327.205 5 131708961.81105
C29  23089306.336 7 120232073.56007
C30  21861746.328 8 113839848.02708
C32  23144027.840 7 120517038.11307
E12  24236522.202 7 127363784.91707  24236522.090 7  95109317.15107  24236521.532 7  97590423.86907
E24  25094475.951 6 131872360.27806  25094477.004 7  98476116.25807  25094476.035 8 101045054.58708
E31  25477925.620 7 133887399.41707  25477930.752 7  99980871.20507  25477930.164 8 102589055.88508
E33  24238568.206 7 127374520.59607  24238568.562 6  95117354.44906  24238568.436 7  97598668.70207
G02  22566352.957 6 118586985.16806  22566348.176 2  92405418.18802
G05                                                                  20571578.437 7  84237179.35407
G12  24492383.139 6 128708505.59206  24492376.040 1 100292202.08601  24492429.753 4
G13  24883782.500 6 130765142.34106
G15  24972796.898 6 131232981.08806  24972801.625 2 102259443.61202  24972803.664 5 102259454.65905
G25  22091437.573 7 116091290.71907  22091440.460 5  90460759.35505  22091441.379 7  90460755.35607
G29  20619781.228 7 108357680.23207  20619779.776 6  84434556.22906  20619780.375 7  84434555.22007
J02  43751295.930 6 229914607.75206
R02  20669273.280 8 110295202.06308  20669279.754 7  85785179.14507
R03  22790271.503 7 121998233.64207  22790280.302 7  94887461.89107
R09  23372076.643 5 124805585.90805  23372082.328 6  97071036.71506
R15  22699237.654 6 121297864.31806  22699247.532 7  94342793.82807
R17  20003785.032 7 107044295.15107  20003789.308 6  83256690.24006
R18  20629676.132 6 110122617.47506  20629687.113 5  85650950.04305
> 2022 08 16 16 25 41.0000000  0 23
C20  24447273.779 7 127303449.34707
C27  25293871.099 5 131711792.55405
C29  23089005.072 7 120230504.74207
C30  21861945.270 8 113840884.27308
C32  23143961.549 7 120516692.67907
E12  24236383.999 7 127363058.45007  24236383.822 7  95108774.65007  24236383.299 7  97589867.22807
E24  25094563.924 6 131872821.98106  25094564.889 7  98476461.02607  25094563.891 8 101045408.35308
E31  25478467.185 7 133890245.63507  25478472.406 7  99982996.61907  25478471.786 8 102591236.75008
E33  24238850.207 7 127376002.53807  24238850.563 6  95118461.09206  24238850.413 7  97599804.21907
G02  22566791.545 6 118589290.16806  22566786.887 2  92407214.29402
G05                                                                  20571666.735 7  84237540.94807
G12  24493191.814 6 128712753.49606  24493184.397 1 100295512.10001  24493237.216 4
G13  24883284.072 6 130762521.36106
G15  24972196.991 6 131229829.17906  24972201.780 2 102256987.57602  24972203.621 5 102256998.61005
G25  22092061.253 7 116094568.89907  22092064.336 5  90463313.78105  22092065.333 7  90463309.78007
G29  20619668.762 7 108357090.04507  20619667.480 6  84434096.34206  20619668.026 7  84434095.33607
J02  43751318.086 6 229914725.15606
R02  20669033.323 8 110293921.58008  20669039.767 7  85784183.21607
R03  22789536.173 7 121994296.00807  22789544.595 7  94884399.29707
R09  23371677.814 5 124803457.14005  23371683.685 6  97069381.01806
R15  22700046.847 6 121302189.60106  22700056.837 6  94346157.93406
R17  20004035.922 7 107045637.18107  20004040.024 6  83257734.03806
R18  20629420.717 6 110121253.46406  20629431.619 5  85649889.15105
> 2022 08 16 16 25 42.0000000  0 23
C20  24446720.466 7 127300571.73207
C27  25294414.712 5 131714623.34605
C29  23088703.766 7 120228936.04107
C30  21862144.225 8 113841920.73208
C32  23143895.427 7 120516347.75107
E12  24236245.817 7 127362332.11407  24236245.618 7  95108232.26207  24236245.058 7  97589310.68107
E24  25094651.801 6 131873284.11406  25094652.789 7  98476806.12607  25094651.864 8 101045762.45308
E31  25479008.722 7 133893092.07507  25479014.090 7  99985122.21307  25479013.434 8 102593417.78908
E33  24239132.336 7 127377484.55807  24239132.592 6  95119567.78906  24239132.458 7  97600939.78807
G02  22567230.173 6 118591595.24206  22567225.509 2  92409010.45502
G05                                                                  20571755.065 7  84237903.02707
G12  24493999.980 7 128717001.38007  24493992.750 1 100298822.11601  24494045.739 4
G13  24882785.830 6 130759900.44106
G15  24971597.002 6 131226677.15306  24971601.916 2 102254531.45602  24971603.834 5 102254542.47405
G25  22092685.040 7 116097847.41507  22092688.279 5  90465868.47005  22092689.119 7  90465864.46807
G29  20619556.590 7 108356500.22007  20619555.242 6  84433636.73806  20619555.721 7  84433635.73307
J02  43751340.283 6 229914842.52506
R02  20668793.529 8 110292641.86008  20668799.863 7  85783187.87707
R03  22788800.883 7 121990358.50207  22788808.984 7  94881336.79607
R09  23371279.550 5 124801328.97605  23371285.050 6  97067725.78406
R15  22700856.187 6 121306515.04306  22700866.354 6  94349522.16706
R17  20004286.888 7 107046979.46607  20004290.838 6  83258778.03606
R18  20629165.643 6 110119889.64206  20629176.112 5  85648828.38105
> 2022 08 16 16 25 43.0000000  0 23
C20  24446167.251 7 127297693.74007
C27  25294958.072 5 131717453.69205
C29  23088402.404 7 120227366.93107
C30  21862343.192 8 113842956.90908
C32  23143829.235 7 120516002.82607
E12  24236107.633 7 127361605.36907  24236107.290 7  95107689.56607  24236106.724 7  97588753.83207
E24  25094739.631 6 131873746.18306  25094740.653 7  98477151.16507  25094739.833 8 101046116.49808
E31  25479550.196 7 133895938.22607  25479555.682 7  99987247.58307  25479555.024 8 102595598.60608
E33  24239414.333 7 127378966.14007  24239414.438 6  95120674.16506  24239414.405 7  97602075.02307
G02  22567668.599 6 118593899.88506  22567664.126 2  92410806.29402
G05  20571867.113 3                                                  20571843.421 7  84238265.21807
G12  24494808.239 7 128721248.75507  24494801.032 1 100302131.78701  24494852.898 4
G13  24882287.281 6 130757279.01106
G15  24970997.047 6 131223524.51006  24971001.896 2 102252074.84002  24971003.865 5 102252085.89305
G25  22093308.960 7 116101125.73607  22093312.165 5  90468423.00005  22093312.842 7  90468419.00107
G29  20619444.343 7 108355910.24907  20619442.960 6  84433177.02106  20619443.409 7  84433176.00907
J02  43751362.249 6 229914959.32506
R02  20668553.784 8 110291362.39708  20668559.941 7  85782192.73607
R03  22788065.365 7 121986420.60507  22788073.429 7  94878273.98607
R09  23370880.759 5 124799200.96205  23370887.118 6  97066070.66906
R15  22701665.697 6 121310840.13406  22701675.564 6  94352886.13606
R17  20004537.790 7 107048321.45407  20004541.660 6  83259821.80006
R18  20628909.882 6 110118525.45806  20628920.114 5  85647767.32705
> 2022 08 16 16 25 44.0000000  0 23
C20  24445614.060 7 127294815.17807
C27  25295501.572 5 131720283.34905
C29  23088100.881 7 120225797.22407
C30  21862542.040 8 113843992.59308
C32  23143763.037 7 120515657.71507
E12  24235969.186 7 127360878.03407  24235968.877 7  95107146.42907  24235968.308 7  97588196.52407
E24  25094827.646 6 131874207.95006  25094828.516 7  98477495.99507  25094827.798 8 101046470.33008
E31  25480091.521 7 133898783.88907  25480097.200 7  99989372.58207  25480096.542 8 102597779.03808
E33  24239696.141 7 127380447.08407  24239696.210 7  95121780.07707  24239696.252 7  97603209.79107
G02  22568106.983 6 118596203.86406  22568102.537 2  92412601.59002
G05  20571952.928 3                                                  20571931.797 7  84238627.33807
G12  24495616.623 7 128725495.40907  24495609.224 1 100305440.83601  24495661.748 4
G13  24881788.260 6 130754656.93806
G15  24970396.737 6 131220371.02306  24970401.768 2 102249617.57402  24970403.291 5 102249628.62805
G25  22093932.768 7 116104403.68907  22093935.978 5  90470977.25105  22093936.629 7  90470973.25007
G29  20619331.946 7 108355319.93407  20619330.615 6  84432717.03306  20619331.214 7  84432716.01607
J02  43751384.513 6 229915075.33506
R02  20668314.123 8 110290082.99508  20668320.208 7  85781197.63407
R03  22787329.541 7 121982482.10707  22787337.729 7  94875210.71107
R09  23370481.762 5 124797072.79305  23370488.868 6  97064415.40306
R15  22702475.175 6 121315164.68606  22702484.697 6  94356249.68206
R17  20004788.435 7 107049662.97607  20004792.394 6  83260865.20006
R18  20628654.155 6 110117160.77106  20628665.480 5  85646705.91705
> 2022 08 16 16 25 45.0000000  0 23
C20  24445061.131 7 127291936.04807
C27  25296044.901 5 131723112.38505
C29  23087799.337 7 120224226.88907
C30  21862740.845 8 113845027.76308
C32  23143696.802 7 120515312.39807
E12  24235830.746 7 127360150.11607  24235830.343 7  95106602.84907  24235829.755 7  97587638.76307
E24  25094915.539 6 131874669.44506  25094916.303 7  98477840.62407  25094915.636 8 101046823.94108
E31  25480632.855 7 133901629.06007  25480638.638 7  99991497.22407  25480637.937 8 102599959.10608
E33  24239977.927 7 127381927.40607  24239977.886 6  95122885.49406  24239977.987 7  97604344.05907
G02  22568545.084 6 118598507.21606  22568540.899 2  92414396.41202
G05                                                                  20572020.175 7  84238989.38807
G12  24496424.762 7 128729741.35307  24496417.376 1 100308749.37301  24496469.095 4
G13  24881289.387 6 130752034.20406
G15  24969796.337 6 131217216.71706  24969801.471 2 102247159.67202  24969802.923 5 102247170.72805
G25  22094556.414 7 116107681.25007  22094559.707 5  90473531.19205  22094560.329 7  90473527.19407
G29  20619219.640 7 108354729.24307  20619218.203 6  84432256.75306  20619218.937 7  84432255.74407
J02  43751406.436 6 229915190.57906
R02  20668074.393 8 110288803.65508  20668080.324 7  85780202.59407
R03  22786593.526 7 121978543.00807  22786601.847 7  94872146.97307
R09  23370082.757 5 124794944.58705  23370090.021 6  97062760.09606
R15  22703283.950 6 121319488.78606  22703293.616 6  94359612.84706
R17  20005039.096 7 107051004.02807  20005043.209 6  83261908.25406
R18  20628398.494 6 110115795.54806  20628410.036 5  85645644.10705
> 2022 08 16 16 25 46.0000000  0 23
C20  24444508.341 7 127289057.06607
C27  25296588.259 5 131725941.50505
C29  23087497.712 7 120222656.68207
C30  21862939.709 8 113846063.18508
C32  23143630.629 7 120514967.61307
E12  24235692.258 7 127359422.34507  24235691.884 7  95106059.38307  24235691.235 7  97587081.12707
E24  25095003.454 6 131875131.39506  25095004.185 7  98478185.58107  25095003.527 8 101047177.88808
E31  25481174.378 7 133904474.48507  25481180.134 7  99993622.05007  25481179.420 8 102602139.36508
E33  24240259.624 7 127383407.82807  24240259.585 6  95123991.00706  24240259.754 7  97605478.39907
G02  22568983.329 6 118600810.61206  22568979.252 2  92416191.28102
G05                                                                  20572108.813 7  84239351.94207
G12  24497232.864 7 128733987.31307  24497225.349 1 100312057.89601  24497276.477 4
G13  24880790.436 6 130749411.52406
G15  24969195.869 6 131214062.32506  24969201.146 2 102244701.69902  24969202.757 5 102244712.73805
G25  22095180.095 7 116110959.18107  22095183.512 5  90476085.42305  22095184.192 7  90476081.42507
G29  20619107.212 7 108354138.94907  20619105.875 6  84431796.78306  20619106.569 7  84431795.79207
J02  43751428.505 6 229915305.76106
R02  20667834.861 8 110287525.11308  20667840.778 7  85779208.18907
R03  22785857.779 7 121974604.07107  22785866.084 7  94869083.35707
R09  23369683.541 5 124792816.94405  23369691.593 6  97061105.30306
R15  22704094.146 6 121323813.10206  22704102.457 6  94362976.19706
R17  20005289.834 7 107052345.35007  20005293.516 6  83262951.48806
R18  20628142.718 6 110114430.49306  20628154.399 5  85644582.42405
> 2022 08 16 16 25 47.0000000  0 23
C20  24443955.664 7 127286178.32407
C27  25297131.630 5 131728770.75605
C29  23087196.126 7 120221086.69507
C30  21863138.608 8 113847098.93208
C32  23143564.554 7 120514623.44407
E12  24235553.830 7 127358694.79007  24235553.448 7  95105516.08107  24235552.772 7  97586523.64807
E24  25095091.409 6 131875593.88906  25095092.204 7  98478530.94507  25095091.534 8 101047532.27508
E31  25481715.848 7 133907320.23907  25481721.627 7  99995747.12307  25481720.986 8 102604319.87908
E33  24240541.357 7 127384888.43507  24240541.370 6  95125096.65006  24240541.553 7  97606612.88907
G02  22569421.884 6 118603114.23106  22569417.672 2  92417986.31602
G05  20572207.618 4                                                  20572197.380 7  84239715.08007
G12  24498040.900 7 128738233.37907  24498033.487 1 100315366.50401  24498084.415 4
G13  24880292.145 6 130746789.00806
G15  24968595.144 6 131210907.92006  24968600.809 2 102242243.72402  24968602.302 5 102242254.79205
G25  22095803.824 7 116114237.53907  22095807.406 5  90478639.98605  22095808.175 7  90478635.99507
G29  20618995.175 7 108353549.14107  20618993.647 6  84431337.19806  20618994.347 7  84431336.19707
J02  43751450.341 6 229915421.02706
R02  20667595.528 8 110286247.49108  20667601.089 7  85778214.48107
R03  22785122.433 7 121970665.41707  22785130.083 7  94866019.95807
R09  23369283.844 5 124790690.05905  23369293.194 6  97059451.05306
R15  22704903.754 6 121328137.73706  22704911.679 6  94366339.78506
R17  20005540.517 7 107053687.03707  20005544.204 6  83263995.02806
R18  20627886.939 6 110113065.75106  20627898.807 5  85643520.96405
> 2022 08 16 16 25 48.0000000  0 23
C20  24443402.959 7 127283299.40307
C27  25297675.072 5 131731599.76305
C29  23086894.686 7 120219516.49107
C30  21863337.404 8 113848134.57408
C32  23143498.400 7 120514279.48707
E12  24235415.369 7 127357967.03807  24235414.946 7  95104972.63407  24235414.301 7  97585966.02107
E24  25095179.374 6 131876056.49506  25095180.288 7  98478876.39207  25095179.548 8 101047886.73008
E31  25482257.318 7 133910165.89507  25482263.130 7  99997872.12707  25482262.542 8 102606500.31408
E33  24240823.073 7 127386368.80707  24240823.098 6  95126202.13206  24240823.247 7  97607747.19907
G02  22569860.361 6 118605417.58206  22569856.039 2  92419781.11702
G05  20572297.350 4                                                  20572286.141 7  84240078.46507
G12  24498848.721 7 128742479.11807  24498841.456 1 100318674.86901  24498893.014 4
G13  24879793.751 6 130744166.21606
G15  24967994.731 6 131207753.09206  24968000.417 2 102239785.42502  24968001.529 5 102239796.42605
G25  22096427.568 7 116117515.92907  22096431.300 5  90481194.57505  22096432.041 7  90481190.57407
G29  20618883.016 7 108352959.37807  20618881.427 6  84430877.64606  20618882.122 7  84430876.63507
J02  43751472.241 6 229915535.92706
R02  20667356.149 8 110284970.33708  20667361.621 7  85777221.13207
R03  22784386.952 7 121966726.58807  22784394.286 7  94862956.42807
R09  23368885.991 5 124788563.47905  23368895.271 6  97057797.05106
R15  22705712.960 6 121332462.18206  22705720.855 6  94369703.24106
R17  20005791.097 7 107055028.67007  20005794.998 6  83265038.51306
R18  20627631.128 6 110111700.88706  20627643.337 5  85642459.39805
> 2022 08 16 16 25 49.0000000  0 23
C20  24442850.440 7 127280420.47607
C27  25298218.761 5 131734428.67205
C29  23086593.142 7 120217946.23807
C30  21863536.278 8 113849170.28108
C32  23143432.409 7 120513935.87907
E12  24235276.914 7 127357239.24707  24235276.412 7  95104429.14707  24235275.853 7  97585408.35807
E24  25095267.424 6 131876519.38306  25095268.353 7  98479222.05907  25095267.628 8 101048241.41208
E31  25482798.802 7 133913011.62707  25482804.617 7  99999997.18607  25482804.091 8 102608680.80108
E33  24241104.611 7 127387849.10107  24241104.800 6  95127307.54706  24241104.873 7  97608881.45407
G02  22570298.898 6 118607720.84206  22570294.383 2  92421575.86902
G05  20572387.633 4                                                  20572374.935 7  84240442.19607
G12  24499656.511 7 128746724.67607  24499649.393 1 100321983.11001  24499700.987 5
G13  24879295.112 6 130741543.30606
G15  24967394.225 6 131204597.97806  24967399.981 2 102237326.90102  24967401.294 5 102237337.88805
G25  22097051.508 7 116120794.48907  22097055.226 5  90483749.29305  22097055.893 7  90483745.29607
G29  20618770.813 7 108352369.82207  20618769.243 6  84430418.24906  20618769.860 7  84430417.23607
J02  43751494.028 6 229915650.59006
R02  20667116.744 8 110283693.81308  20667122.489 7  85776228.29507
R03  22783651.415 7 121962787.72707  22783658.459 7  94859892.87807
R09  23368487.593 5 124786437.35605  23368497.076 6  97056143.41106
R15  22706522.615 6 121336786.65906  22706530.277 6  94373066.72706
R17  20006041.801 7 107056370.38407  20006045.770 6  83266082.07206
R18  20627375.158 6 110110336.07106  20627386.819 5  85641397.86605
> 2022 08 16 16 25 50.0000000  0 23
C20  24442297.797 7 127277540.81607
C27  25298762.141 5 131737256.78005
C29  23086291.257 7 120216375.21407
C30  21863735.095 8 113850205.34308
C32  23143366.274 7 120513591.91907
E12  24235138.302 7 127356510.70107  24235137.712 7  95103885.11007  24235137.260 7  97584850.12807
E24  25095355.492 6 131876981.85206  25095356.371 7  98479567.41207  25095355.594 8 101048595.77408
E31  25483340.235 7 133915856.71107  25483345.990 7 100002121.76107  25483345.540 8 102610860.80208
E33  24241386.177 7 127389328.61607  24241386.317 6  95128412.37206  24241386.396 7  97610015.10207
G02  22570737.064 6 118610023.29406  22570732.562 2  92423369.97602
G05  20572476.712 3                                                  20572463.576 7  84240805.73707
G12  24500464.269 7 128750969.38607  24500457.165 1 100325290.67401  24500508.969 5
G13  24878796.257 6 130738919.56906
G15  24966793.635 6 131201441.90006  24966799.384 2 102234867.62202  24966800.840 5 102234878.64205
G25  22097675.258 7 116124072.52807  22097679.062 5  90486303.60705  22097679.613 7  90486299.61107
G29  20618658.578 7 108351779.76007  20618656.956 6  84429958.45906  20618657.629 7  84429957.45007
J02  43751515.620 6 229915764.33706
R02  20666877.407 8 110282417.19208  20666883.162 7  85775235.36607
R03  22782915.555 7 121958848.11407  22782922.302 7  94856828.74107
R09  23368089.570 5 124784310.97105  23368098.856 6  97054489.58606
R15  22707331.718 6 121341110.46106  22707339.760 6  94376429.66706
R17  20006292.390 7 107057711.48507  20006296.550 6  83267125.15006
R18  20627119.487 6 110108970.52006  20627131.686 5  85640335.76705
> 2022 08 16 16 25 51.0000000  0 23
C20  24441745.041 7 127274660.90507
C27  25299305.074 5 131740084.51905
C29  23085989.461 7 120214803.91207
C30  21863933.809 8 113851240.22608
C32  23143300.307 7 120513248.07607
E12  24234999.731 7 127355781.88007  24234999.035 7  95103340.86407  24234998.609 7  97584291.67707
E24  25095443.578 6 131877444.34406  25095444.394 7  98479912.78107  25095443.593 8 101048950.15008
E31  25483881.669 7 133918701.61407  25483887.335 7 100004246.20707  25483886.919 8 102613040.67308
E33  24241667.586 7 127390807.80707  24241667.837 6  95129516.96906  24241667.866 7  97611148.51407
G02  22571175.329 6 118612325.42506  22571170.687 2  92425163.84602
G05  20572565.442 3                                                  20572552.523 7  84241169.47607
G12  24501271.898 7 128755213.68207  24501264.901 1 100328597.93001  24501315.895 5
G13  24878297.068 6 130736295.50306
G15  24966192.857 6 131198285.29106  24966198.684 2 102232407.93002  24966199.568 5 102232418.95905
G25  22098299.028 7 116127350.48807  22098302.889 5  90488857.85905  22098303.469 7  90488853.86007
G29  20618546.071 7 108351189.67607  20618544.669 6  84429498.64906  20618545.355 7  84429497.64007
J02  43751537.201 6 229915877.60106
R02  20666638.214 8 110281140.93208  20666644.006 7  85774242.72107
R03  22782179.620 7 121954908.23507  22782186.328 7  94853764.39107
R09  23367691.721 5 124782184.84805  23367700.593 6  97052835.92506
R15  22708140.621 6 121345434.10106  22708148.898 6  94379792.48306
R17  20006542.567 7 107059052.43407  20006547.036 6  83268168.11706
R18  20626863.602 6 110107604.75806  20626876.377 5  85639273.48605
> 2022 08 16 16 25 52.0000000  0 23
C20  24441192.336 7 127271781.06607
C27  25299848.340 5 131742912.26605
C29  23085687.746 7 120213232.64107
C30  21864132.522 8 113852275.25608
C32  23143234.405 7 120512904.67507
E12  24234861.057 7 127355053.09907  24234860.386 7  95102796.64107  24234859.883 7  97583733.26007
E24  25095531.780 6 131877907.20706  25095532.387 7  98480258.41507  25095531.646 8 101049304.80508
E31  25484423.144 7 133921546.68607  25484428.737 7 100006370.76307  25484428.318 8 102615220.65108
E33  24241949.149 7 127392287.01707  24241949.299 6  95130621.56506  24241949.348 7  97612281.93107
G02  22571613.350 6 118614627.55606  22571608.821 2  92426957.72302
G05  20572653.922 3                                                  20572641.590 7  84241533.65307
G12  24502079.438 7 128759457.89707  24502072.561 1 100331905.08801  24502122.911 5
G13  24877797.820 6 130733671.39906
G15  24965592.236 6 131195128.50406  24965597.949 2 102229948.08902  24965599.002 5 102229959.09705
G25  22098922.842 7 116130628.71107  22098926.743 5  90491412.31305  22098927.335 7  90491408.32607
G29  20618433.740 7 108350599.87107  20618432.449 6  84429039.06006  20618433.157 7  84429038.05307
J02  43751558.926 6 229915990.75406
R02  20666399.149 8 110279865.35008  20666405.157 7  85773250.60007
R03  22781443.759 7 121950968.41607  22781450.330 7  94850700.08107
R09  23367294.270 5 124780059.25505  23367302.400 6  97051182.68206
R15  22708949.560 6 121349757.83206  22708958.138 6  94383155.38206
R17  20006792.921 7 107060393.53107  20006797.640 6  83269211.19006
R18  20626607.727 6 110106239.10306  20626620.482 5  85638211.33105
> 2022 08 16 16 25 53.0000000  0 23
C20  24440639.704 7 127268901.07707
C27  25300391.421 5 131745739.76005
C29  23085385.905 7 120211661.17607
C30  21864331.289 8 113853310.21908
C32  23143168.492 7 120512561.50507
E12  24234722.376 7 127354324.17307  24234721.676 7  95102252.31207  24234721.182 7  97583174.73707
E24  25095620.010 6 131878370.21606  25095620.508 7  98480604.16807  25095619.725 8 101049659.57608
E31  25484964.619 7 133924391.70207  25484970.127 7 100008495.28207  25484969.722 8 102617400.59508
E33  24242230.571 7 127393766.02207  24242230.769 6  95131726.00606  24242230.762 7  97613415.19207
G02  22572051.380 6 118616929.47906  22572046.812 2  92428751.42302
G05  20572741.857 3                                                  20572730.824 7  84241898.09307
G12  24502887.024 7 128763701.85307  24502880.181 1 100335212.03301  24502930.187 5
G13  24877298.085 6 130731047.06106
G15  24964991.387 6 131191971.32506  24964997.146 2 102227487.95102  24964998.431 5 102227498.95605
G25  22099546.662 7 116133906.99207  22099550.597 5  90493966.81305  22099551.097 7  90493962.82307
G29  20618321.516 7 108350010.15507  20618320.247 6  84428579.54006  20618320.785 7  84428578.53807
J02  43751580.699 6 229916103.57106
R02  20666160.071 8 110278590.23608  20666166.011 7  85772258.84807
R03  22780707.671 7 121947028.43907  22780714.249 7  94847635.66407
R09  23366896.540 5 124777933.97805  23366904.279 6  97049529.70106
R15  22709758.458 6 121354081.48106  22709767.249 6  94386518.20406
R17  20007043.591 7 107061734.57907  20007048.190 6  83270254.22206
R18  20626351.850 6 110104873.37406  20626364.279 5  85637149.09105
> 2022 08 16 16 25 54.0000000  0 23
C20  24440086.896 7 127266020.89007
C27  25300934.788 5 131748566.97305
C29  23085084.041 7 120210089.50307
C30  21864530.053 8 113854345.07508
C32  23143102.730 7 120512218.52107
E12  24234583.576 7 127353595.02407  24234582.931 7  95101707.81607  24234582.457 7  97582616.04107
E24  25095707.956 6 131878833.34206  25095708.622 7  98480950.00107  25095707.853 8 101050014.43408
E31  25485506.049 7 133927236.59407  25485511.438 7 100010619.71707  25485511.135 8 102619580.44908
E33  24242511.942 7 127395244.77507  24242512.181 6  95132830.27506  24242512.186 7  97614548.26207
G02  22572489.636 6 118619231.12006  22572484.825 2  92430544.91802
G05  20572829.979 3                                                  20572819.986 7  84242262.76407
G12  24503694.418 7 128767945.46107  24503687.809 1 100338518.72101  24503736.689 5
G13  24876798.023 6 130728422.42306
G15  24964390.660 6 131188813.68306  24964396.254 2 102225027.46002  24964397.417 5 102225038.47405
G25  22100170.814 7 116137185.26607  22100174.446 5  90496521.31305  22100174.930 7  90496517.32907
G29  20618209.264 7 108349420.47207  20618208.036 6  84428120.04806  20618208.691 7  84428119.03807
J02  43751601.991 6 229916215.98806
R02  20665921.214 8 110277315.52708  20665926.985 7  85771267.39907
R03  22779971.797 7 121943088.27307  22779977.840 7  94844571.08307
R09  23366498.653 5 124775809.04205  23366506.321 6  97047876.93706
R15  22710567.322 6 121358404.92606  22710576.253 6  94389880.87306
R17  20007294.273 7 107063075.56707  20007298.896 6  83271297.20906
R18  20626096.196 6 110103507.51206  20626108.616 5  85636086.74805
> 2022 08 16 16 25 55.0000000  0 23
C20  24439534.025 7 127263140.14507
C27  25301478.371 5 131751393.57405
C29  23084782.151 7 120208517.22007
C30  21864728.703 8 113855379.44208
C32  23143036.834 7 120511875.35207
E12  24234444.606 7 127352865.28307  24234444.105 7  95101162.89007  24234443.615 7  97582056.89007
E24  25095796.071 6 131879296.17106  25095796.691 7  98481295.62307  25095795.945 8 101050369.07608
E31  25486047.440 7 133930081.01807  25486052.721 7 100012743.79807  25486052.429 8 102621759.93708
E33  24242793.247 7 127396722.89007  24242793.473 6  95133934.06306  24242793.491 7  97615680.84207
G02  22572927.530 6 118621532.14706  22572922.714 2  92432337.92902
G05  20572918.025 3                                                  20572909.007 7  84242627.37607
G12  24504501.720 7 128772188.35107  24504495.206 1 100341824.82301  24504543.195 5
G13  24876297.528 6 130725797.11206
G15  24963789.695 6 131185655.23106  24963795.205 2 102222566.32302  24963796.739 5 102222577.34005
G25  22100794.508 7 116140463.16907  22100798.233 5  90499075.52305  22100798.653 7  90499071.53407
G29  20618096.836 7 108348830.43107  20618095.767 6  84427660.27606  20618096.474 7  84427659.27607
J02  43751623.274 6 229916327.62506
R02  20665682.354 8 110276040.84808  20665688.164 7  85770275.99107
R03  22779235.473 7 121939147.53207  22779241.588 7  94841506.06307
R09  23366100.236 5 124773683.92205  23366108.299 6  97046224.10206
R15  22711375.892 6 121362727.84806  22711385.179 6  94393243.12806
R17  20007544.775 7 107064416.11807  20007549.621 6  83272339.85006
R18  20625840.358 6 110102141.08206  20625852.690 5  85635023.96405
> 2022 08 16 16 25 56.0000000  0 23
C20  24438980.884 7 127260258.72007
C27  25302021.281 5 131754219.37605
C29  23084479.960 7 120206944.24707
C30  21864927.268 8 113856413.20908
C32  23142970.858 7 120511531.87707
E12  24234305.526 7 127352134.84707  24234305.093 7  95100617.43207  24234304.593 7  97581497.20607
E24  25095884.030 6 131879758.63606  25095884.710 7  98481640.96807  25095884.009 8 101050723.42508
E31  25486588.510 7 133932924.84707  25486593.863 7 100014867.43007  25486593.618 8 102623938.97408
E33  24243074.404 7 127398200.28007  24243074.605 6  95135037.31406  24243074.637 7  97616812.87007
G02  22573365.308 6 118623832.38706  22573360.476 2  92434130.32502
G05                                                                  20572997.948 7  84242991.84807
G12  24505308.732 7 128776430.42707  24505302.530 1 100345130.36901  24505350.068 5
G13  24875796.384 6 130723171.06506
G15  24963188.566 6 131182495.84106  24963193.978 2 102220104.45902  24963196.098 5 102220115.50005
G25  22101418.168 7 116143740.59707  22101421.926 5  90501629.36205  22101422.370 7  90501625.36907
G29  20617984.332 7 108348239.95207  20617983.413 6  84427200.16406  20617984.138 7  84427199.15807
J02  43751644.185 6 229916438.38906
R02  20665443.548 8 110274766.08008  20665449.407 7  85769284.51807
R03  22778499.353 7 121935206.09007  22778505.199 7  94838440.51007
R09  23365701.637 5 124771558.69705  23365710.630 6  97044571.10006
R15  22712184.674 6 121367050.13506  22712194.217 6  94396604.90706
R17  20007795.199 7 107065756.07007  20007800.030 6  83273382.04406
R18  20625583.865 6 110100774.02706  20625596.467 5  85633960.70605
> 2022 08 16 16 25 57.0000000  0 23
C20  24438427.582 7 127257376.90507
C27  25302564.293 5 131757044.71505
C29  23084177.780 7 120205370.81707
C30  21865125.728 8 113857446.66908
C32  23142904.797 7 120511188.38607
E12  24234166.406 7 127351403.98407  24234166.051 7  95100071.65607  24234165.470 7  97580937.19707
E24  25095972.148 6 131880220.98306  25095972.693 7  98481986.22907  25095972.019 8 101051077.68808
E31  25487129.630 7 133935768.35407  25487134.970 7 100016990.83207  25487134.727 8 102626117.76008
E33  24243355.418 7 127399677.19707  24243355.656 6  95136140.20606  24243355.686 7  97617944.53807
G02  22573802.903 6 118626132.19906  22573798.208 2  92435922.38902
G05                                                                  20573087.184 7  84243356.38207
G12  24506115.686 7 128780671.94707  24506109.694 1 100348435.42301  24506157.281 5
G13  24875295.276 6 130720544.51406
G15  24962587.141 6 131179335.80206  24962592.643 2 102217642.09002  24962594.724 5 102217653.14905
G25  22102041.699 7 116147017.79907  22102045.588 5  90504183.02605  22102045.807 7  90504179.03207
G29  20617871.949 7 108347649.30207  20617871.028 6  84426739.91306  20617871.809 7  84426738.91207
J02  43751664.995 6 229916548.53506
R02  20665204.837 8 110273491.53808  20665210.297 7  85768293.20207
R03  22777763.099 7 121931264.24307  22777768.687 7  94835374.64107
R09  23365302.594 4 124769433.43304  23365312.473 6  97042918.15206
R15  22712993.554 6 121371372.09106  22713003.076 6  94399966.42306
R17  20008045.689 7 107067095.70907  20008050.689 6  83274423.99406
R18  20625327.522 6 110099406.60606  20625339.447 5  85632897.14405
> 2022 08 16 16 25 58.0000000  0 23
C20  24437874.240 7 127254495.60707
C27  25303107.147 5 131759870.50405
C29  23083875.749 7 120203797.89107
C30  21865324.429 8 113858480.72308
C32  23142838.888 7 120510845.78307
E12  24234027.442 7 127350673.63707  24234027.056 7  95099526.26607  24234026.418 7  97580377.57707
E24  25096060.268 6 131880684.14706  25096060.824 7  98482332.10607  25096060.183 8 101051432.59108
E31  25487670.759 7 133938612.46607  25487676.161 7 100019114.68507  25487675.904 8 102628297.02408
E33  24243636.540 7 127401154.59107  24243636.742 6  95137243.45006  24243636.840 7  97619076.56807
G02  22574240.778 6 118628432.44806  22574235.962 2  92437714.78702
G05                                                                  20573176.274 7  84243721.72507
G12  24506922.831 7 128784913.83707  24506916.920 1 100351740.77301  24506964.780 5
G13  24874794.931 6 130717918.37406
G15  24961985.932 6 131176176.02906  24961991.330 2 102215179.93302  24961993.227 5 102215190.98005
G25  22102665.463 7 116150295.72307  22102669.379 5  90506737.25205  22102669.456 7  90506733.26807
G29  20617759.693 7 108347059.39907  20617758.804 6  84426280.24806  20617759.558 7  84426279.25207
J02  43751686.205 6 229916659.06206
R02  20664966.251 8 110272218.18108  20664971.618 7  85767302.81407
R03  22777026.897 7 121927322.95607  22777032.456 7  94832309.19707
R09  23364904.663 5 124767309.20205  23364914.435 6  97041265.96606
R15  22713802.229 6 121375694.62106  22713811.830 6  94403328.39106
R17  20008296.258 7 107068435.99907  20008301.152 6  83275466.43606
R18  20625071.551 6 110098039.74706  20625081.843 5  85631834.05305
> 2022 08 16 16 25 59.0000000  0 23
C20  24437320.868 7 127251614.56907
C27  25303650.097 5 131762696.46505
C29  23083573.831 7 120202225.17507
C30  21865523.122 8 113859515.10908
C32  23142773.100 7 120510503.81707
E12  24233888.566 7 127349943.50307  24233888.131 7  95098981.04607  24233887.470 7  97579818.13007
E24  25096148.515 6 131881147.87206  25096149.056 7  98482678.39307  25096148.395 8 101051787.91408
E31  25488212.072 7 133941456.93007  25488217.386 7 100021238.79307  25488217.216 8 102630476.54108
E33  24243917.683 7 127402632.19107  24243917.949 7  95138346.85207  24243918.036 7  97620208.74907
G02  22574678.995 6 118630732.86006  22574673.716 2  92439507.30402
G05                                                                  20573265.582 7  84244087.62507
G12  24507730.088 7 128789155.85607  24507724.178 1 100355046.24001  24507771.224 5
G13  24874294.641 6 130715292.40906
G15  24961384.499 6 131173016.26806  24961390.022 2 102212717.77802  24961391.641 5 102212728.77605
G25  22103289.345 7 116153574.10407  22103293.264 5  90509291.83305  22103293.272 7  90509287.84507
G29  20617647.491 7 108346469.97607  20617646.664 6  84425820.95806  20617647.379 7  84425819.96207
J02  43751707.039 6 229916769.61806
R02  20664727.807 8 110270945.74408  20664733.224 7  85766313.14207
R03  22776290.468 7 121923381.92407  22776296.280 7  94829243.94907
R09  23364507.772 5 124765185.71605  23364516.761 6  97039614.36806
R15  22714610.771 6 121380017.44206  22714620.891 6  94406690.58006
R17  20008546.976 7 107069776.69007  20008551.703 6  83276509.17206
R18  20624815.460 7 110096673.21207  20624824.823 5  85630771.17805
> 2022 08 16 16 26  0.0000000  0 23
C20  24436767.409 7 127248733.06407
C27  25304192.773 5 131765521.82305
C29  23083271.721 7 120200651.96107
C30  21865721.669 8 113860549.10508
C32  23142707.470 7 120510161.73907
E12  24233749.501 7 127349212.88607  24233749.149 7  95098435.45107  24233748.412 7  97579258.30207
E24  25096236.674 6 131881611.41306  25096237.302 7  98483024.54507  25096236.634 8 101052143.09608
E31  25488753.317 7 133944300.99607  25488758.571 7 100023362.60907  25488758.432 8 102632655.76908
E33  24244198.732 7 127404109.25607  24244199.039 6  95139449.85706  24244199.126 7  97621340.52307
G02  22575116.367 6 118633032.74906  22575111.421 2  92441299.42602
G05                                                                  20573354.785 7  84244453.56107
G12  24508537.159 7 128793397.25007  24508531.319 1 100358351.20501  24508577.819 5
G13  24873794.573 5 130712665.89205
G15  24960783.088 6 131169855.75906  24960788.625 2 102210255.04102  24960790.092 5 102210266.08505
G25  22103913.521 7 116156852.20507  22103917.069 5  90511846.19405  22103916.993 7  90511842.21407
G29  20617535.266 7 108345880.30407  20617534.480 6  84425361.47306  20617535.224 7  84425360.47607
J02  43751728.149 6 229916879.47906
R02  20664489.279 8 110269673.48508  20664495.051 7  85765323.60207
R03  22775554.045 7 121919440.39007  22775560.188 7  94826178.31307
R09  23364111.237 5 124763062.19705  23364118.948 6  97037962.77106
R15  22715419.704 6 121384339.81006  22715429.653 6  94410052.40906
R17  20008797.521 7 107071117.06307  20008801.789 6  83277551.68706
R18  20624559.387 7 110095306.23907  20624567.291 5  85629707.96805
> 2022 08 16 16 26  1.0000000  0 23
C20  24436213.590 7 127245850.97307
C27  25304735.209 5 131768346.57305
C29  23082969.445 7 120199078.13607
C30  21865920.168 8 113861582.60008
C32  23142641.688 7 120509819.47707
E12  24233610.367 7 127348481.67907  24233610.029 7  95097889.42707  24233609.222 7  97578698.03207
E24  25096324.624 6 131882074.68006  25096325.486 7  98483370.48607  25096324.787 8 101052498.06108
E31  25489294.402 7 133947144.57107  25489299.713 7 100025486.05607  25489299.573 8 102634834.61008
E33  24244479.658 7 127405585.68107  24244480.084 6  95140552.37806  24244480.051 7  97622471.81007
G02  22575554.169 5 118635331.97905  22575549.000 2  92443091.03302
G05                                                                  20573444.168 7  84244819.42107
G12  24509344.057 7 128797637.91707  24509338.317 1 100361655.61601  24509384.397 5
G13  24873294.820 5 130710038.68305
G15  24960181.391 6 131166694.43906  24960187.129 2 102207791.67102  24960188.444 5 102207802.68905
G25  22104537.466 7 116160129.91607  22104540.802 5  90514400.25305  22104540.832 7  90514396.26807
G29  20617422.895 7 108345290.28407  20617422.229 6  84424901.71806  20617422.959 7  84424900.71907
J02  43751748.745 6 229916988.59306
R02  20664250.745 8 110268401.28708  20664256.876 7  85764334.12407
R03  22774817.486 7 121915498.23607  22774823.585 7  94823112.19607
R09  23363713.421 5 124760938.67105  23363720.946 6  97036311.11906
R15  22716228.566 7 121388661.67207  22716238.322 6  94413413.85706
R17  20009047.929 7 107072456.93807  20009051.965 6  83278593.82306
R18  20624302.964 7 110093938.72107  20624310.700 5  85628644.34605
> 2022 08 16 16 26  2.0000000  0 23
C20  24435659.570 7 127242968.06007
C27  25305277.256 5 131771170.41305
C29  23082667.166 7 120197503.45007
C30  21866118.458 8 113862615.34808
C32  23142576.067 7 120509476.75507
E12  24233470.998 7 127347749.61707  24233470.687 7  95097342.74407  24233469.882 7  97578137.09007
E24  25096412.662 6 131882537.41506  25096413.517 7  98483716.02407  25096412.834 8 101052852.61508
E31  25489835.562 7 133949987.40507  25489840.748 7 100027608.94507  25489840.558 8 102637012.88008
E33  24244760.525 7 127407061.20507  24244760.884 6  95141654.23406  24244760.862 7  97623602.41107
G02  22575991.721 5 118637630.32905  22575986.370 2  92444881.94402
G05                                                                  20573533.804 7  84245185.01407
G12  24510150.748 7 128801877.60507  24510145.141 1 100364959.27301  24510191.212 5
G13  24872794.188 5 130707410.53205
G15  24959579.430 6 131163532.02306  24959585.427 2 102205327.44702  24959586.433 5 102205338.51205
G25  22105161.167 7 116163406.98507  22105164.410 5  90516953.81305  22105164.678 7  90516949.82907
G29  20617310.438 7 108344699.65207  20617309.862 6  84424441.48506  20617310.628 7  84424440.48507
J02  43751769.218 6 229917096.65706
R02  20664012.310 8 110267128.90408  20664018.460 7  85763344.48907
R03  22774080.937 7 121911555.22107  22774087.096 7  94820045.41407
R09  23363316.558 5 124758814.72605  23363323.297 6  97034659.15306
R15  22717037.644 7 121392982.74607  22717046.992 6  94416774.67706
R17  20009298.018 7 107073796.04107  20009302.271 6  83279635.33406
R18  20624046.728 7 110092570.42007  20624053.565 5  85627580.10305
> 2022 08 16 16 26  3.0000000  0 23
C20  24435105.633 7 127240085.28307
C27  25305819.163 5 131773994.29105
C29  23082364.642 7 120195928.85507
C30  21866316.897 8 113863648.29908
C32  23142510.436 7 120509134.54607
E12  24233331.670 7 127347017.65607  24233331.394 7  95096796.15407  24233330.572 7  97577576.23907
E24  25096500.784 6 131883000.54506  25096501.648 7  98484061.88007  25096500.979 8 101053207.49008
E31  25490376.654 7 133952830.44207  25490381.844 7 100029732.00207  25490381.570 8 102639191.31108
E33  24245041.348 7 127408536.80607  24245041.793 7  95142756.13707  24245041.637 7  97624733.06307
G02  22576429.654 5 118639928.73805  22576423.820 2  92446672.91102
G05                                                                  20573622.926 7  84245551.09207
G12  24510957.509 7 128806117.27707  24510951.969 1 100368262.90901  24510998.631 5
G13  24872293.479 5 130704782.42605
G15  24958977.523 6 131160369.49906  24958983.632 2 102202863.15202  24958984.168 5 102202874.18305
G25  22105784.750 7 116166684.38807  22105788.072 5  90519507.63405  22105788.443 7  90519503.64007
G29  20617198.274 7 108344109.37207  20617197.566 6  84423981.52806  20617198.352 7  84423980.53007
J02  43751789.593 6 229917204.65506
R02  20663773.857 7 110265857.29207  20663780.207 7  85762355.45907
R03  22773343.971 7 121907612.34007  22773350.444 7  94816978.73007
R09  23362918.130 5 124756691.41105  23362925.506 6  97033007.69306
R15  22717846.644 7 121397303.99607  22717855.983 6  94420135.64206
R17  20009548.240 7 107075135.34207  20009552.252 6  83280677.00906
R18  20623790.599 7 110091202.28107  20623797.388 5  85626515.98405
> 2022 08 16 16 26  4.0000000  0 23
C20  24434551.674 7 127237202.76907
C27  25306361.448 5 131776818.29505
C29  23082062.190 7 120194354.47607
C30  21866515.344 8 113864681.59008
C32  23142444.938 7 120508792.95707
E12  24233192.429 7 127346285.92807  24233192.187 7  95096249.73507  24233191.335 7  97577015.56707
E24  25096588.903 6 131883464.25806  25096589.870 7  98484408.14607  25096589.205 8 101053562.79408
E31  25490917.735 7 133955673.83007  25490922.928 7 100031855.30107  25490922.659 8 102641370.01008
E33  24245322.124 7 127410012.60707  24245322.586 6  95143858.19006  24245322.506 7  97625863.87107
G02  22576866.263 5 118642227.30005  22576861.332 2  92448463.99902
G05  20573745.253 4                                                  20573712.449 7  84245917.74407
G12  24511764.332 7 128810357.05507  24511758.824 1 100371566.60201  24511805.602 5
G13  24871793.641 5 130702154.52805
G15  24958375.333 6 131157206.95706  24958381.859 2 102200398.82802  24958382.780 5 102200409.92705
G25  22106408.644 7 116169962.22307  22106411.814 5  90522061.79105  22106412.288 7  90522057.80107
G29  20617086.132 7 108343519.58107  20617085.355 6  84423521.95006  20617086.087 7  84423520.94707
J02  43751810.032 6 229917312.72206
R02  20663535.657 7 110264586.57807  20663542.052 7  85761367.12607
R03  22772607.110 7 121903669.72907  22772613.910 7  94813912.25307
R09  23362521.051 5 124754568.83305  23362528.220 6  97031356.80206
R15  22718655.638 7 121401625.54707  22718664.423 6  94423496.83406
R17  20009798.627 7 107076475.04707  20009802.792 6  83281718.99906
R18  20623534.748 7 110089834.44807  20623540.557 5  85625452.11805
> 2022 08 16 16 26  5.0000000  0 23
C20  24433997.692 7 127234320.31407
C27  25306902.985 5 131779642.32705
C29  23081759.860 7 120192780.12707
C30  21866713.805 8 113865715.02408
C32  23142379.605 7 120508451.81607
E12  24233053.148 7 127345554.26407  24233052.930 7  95095703.36307  24233052.175 7  97576454.94007
E24  25096677.067 6 131883928.32906  25096678.194 7  98484754.69307  25096677.502 8 101053918.38008
E31  25491458.946 7 133958517.36607  25491463.999 7 100033978.73107  25491463.766 8 102643548.82608
E33  24245602.878 7 127411488.42207  24245603.431 6  95144960.26206  24245603.313 7  97626994.68707
G02  22577303.838 5 118644525.87005  22577298.822 2  92450255.07702
G05  20573833.675 4                                                  20573802.251 7  84246284.82907
G12  24512570.995 7 128814596.76707  24512565.657 1 100374870.27601  24512613.146 5
G13  24871293.728 5 130699526.61705  24871317.872 1 101843888.07411
G15  24957773.241 6 131154044.26706  24957780.086 2 102197934.40902  24957781.836 5 102197945.46105
G25  22107032.388 7 116173240.33707  22107035.610 5  90524616.16005  22107036.131 7  90524612.18107
G29  20616973.861 7 108342930.08407  20616973.207 6  84423062.60106  20616973.845 7  84423061.60207
J02  43751830.899 6 229917420.64706
R02  20663297.690 7 110263316.55907  20663304.104 7  85760379.34607
R03  22771870.526 7 121899727.20207  22771877.676 7  94810845.84307
R09  23362123.681 5 124752446.81305  23362131.052 6  97029706.32606
R15  22719464.556 7 121405947.17707  22719473.539 6  94426858.11206
R17  20010048.960 7 107077814.96307  20010053.288 6  83282761.15306
R18  20623278.547 7 110088466.75407  20623284.311 5  85624388.36905
> 2022 08 16 16 26  6.0000000  0 23
C20  24433443.539 7 127231437.22807
C27  25307444.301 5 131782465.65205
C29  23081457.320 7 120191205.12407
C30  21866912.186 8 113866747.90808
C32  23142314.176 7 120508110.42107
E12  24232913.788 7 127344821.93807  24232913.560 7  95095156.49707  24232912.824 7  97575893.81107
E24  25096765.222 6 131884392.05506  25096766.433 7  98485100.98107  25096765.749 8 101054273.70008
E31  25491999.963 7 133961360.36707  25492004.942 7 100036101.73507  25492004.769 8 102645727.21908
E33  24245883.599 7 127412963.54607  24245884.024 6  95146061.81206  24245884.053 7  97628124.97507
G02  22577740.300 5 118646823.73505  22577736.133 2  92452045.62102
G05  20573922.074 3                                                  20573891.844 7  84246651.81107
G12  24513377.691 7 128818835.69407  24513372.324 1 100378173.32301  24513420.028 5
G13  24870792.947 5 130696897.99105  24870817.918 1 101841839.75801
G15  24957171.057 6 131150880.67806  24957178.152 2 102195469.27002  24957179.462 5 102195480.33905
G25  22107656.183 7 116176518.02007  22107659.321 5  90527170.20105  22107659.890 7  90527166.19707
G29  20616861.649 7 108342340.17607  20616860.978 6  84422602.93606  20616861.584 7  84422601.93607
J02  43751851.476 6 229917527.76206
R02  20663059.609 7 110262046.53607  20663066.199 7  85759391.54907
R03  22771133.962 7 121895784.04407  22771141.080 7  94807778.94807
R09  23361725.888 5 124750324.63205  23361733.735 6  97028055.72806
R15  22720273.288 7 121410268.24507  22720282.212 6  94430218.93706
R17  20010299.336 7 107079154.35907  20010303.437 6  83283802.91706
R18  20623022.421 7 110087098.45107  20623027.730 5  85623324.14905
> 2022 08 16 16 26  7.0000000  0 23
C20  24432889.283 7 127228553.48307
C27  25307985.368 5 131785288.22105
C29  23081154.736 7 120189629.41507
C30  21867110.388 8 113867780.20708
C32  23142248.709 7 120507768.71907
E12  24232774.308 7 127344088.91207  24232774.079 7  95094609.10307  24232773.323 7  97575332.14307
E24  25096853.465 6 131884855.40606  25096854.612 7  98485446.98407  25096853.915 8 101054628.73208
E31  25492540.757 7 133964202.76007  25492545.814 7 100038224.29607  25492545.610 8 102647905.16008
E33  24246164.211 7 127414437.93907  24246164.557 6  95147162.81406  24246164.665 7  97629254.69807
G02  22578176.882 5 118649120.83905  22578173.230 2  92453835.55502
G05  20574010.577 3                                                  20573981.262 7  84247018.65907
G12  24514184.104 7 128823073.80507  24514178.844 1 100381475.75301  24514226.686 5
G13  24870293.252 5 130694268.51005  24870317.588 1 101839790.83001
G15  24956568.828 6 131147716.16106  24956575.999 2 102193003.43002  24956576.826 5 102193014.46405
G25  22108279.802 7 116179795.20407  22108282.938 5  90529723.84705  22108283.548 7  90529719.83907
G29  20616749.307 7 108341749.83107  20616748.655 6  84422142.92406  20616749.271 7  84422141.91607
J02  43751871.498 6 229917633.98406
R02  20662821.454 7 110260776.44407  20662828.185 7  85758403.70707
R03  22770397.215 7 121891840.20007  22770404.459 7  94804711.52407
R09  23361329.090 5 124748202.18605  23361336.413 6  97026404.96706
R15  22721081.840 7 121414588.68707  22721090.372 6  94433579.27106
R17  20010549.623 7 107080493.19607  20010553.356 6  83284844.20806
R18  20622766.094 7 110085729.49607  20622772.304 5  85622259.37705
> 2022 08 16 16 26  8.0000000  0 23
C20  24432335.012 7 127225669.37807
C27  25308526.640 5 131788110.30305
C29  23080852.074 7 120188053.31707
C30  21867308.564 8 113868812.22708
C32  23142183.335 7 120507427.04107
E12  24232634.699 7 127343355.51907  24232634.529 7  95094061.44507  24232633.779 7  97574770.19307
E24  25096941.625 6 131885318.69306  25096942.730 7  98485792.94007  25096942.100 8 101054983.71408
E31  25493081.539 7 133967044.89107  25493086.633 7 100040346.67807  25493086.428 8 102650082.89408
E33  24246444.701 7 127415911.90407  24246444.964 6  95148263.51106  24246445.140 7  97630384.10907
G02  22578613.500 5 118651417.49905  22578610.287 2  92455625.16102
G05  20574099.151 4                                                  20574070.848 7  84247385.62307
G12  24514990.407 7 128827311.40507  24514985.310 1 100384777.79201  24515033.613 5
G13  24869793.030 5 130691638.60505  24869816.990 1 101837741.56801
G15  24955966.526 6 131144551.04206  24955973.716 2 102190537.09802  24955974.082 4 102190548.14004
G25  22108903.519 7 116183072.23807  22108906.524 5  90532277.38105  22108907.285 7  90532273.37807
G29  20616636.926 7 108341159.34807  20616636.310 6  84421682.80606  20616636.897 7  84421681.79907
J02  43751891.747 6 229917739.65706
R02  20662583.446 7 110259506.63007  20662590.101 7  85757416.08707
R03  22769660.366 7 121887895.99407  22769667.706 7  94801643.80607
R09  23360931.797 5 124746079.99505  23360938.889 6  97024754.32206
R15  22721889.792 7 121418908.82907  22721898.898 6  94436939.38906
R17  20010800.095 7 107081831.74607  20010802.970 6  83285885.29506
R18  20622509.575 7 110084360.24207  20622515.826 5  85621194.41505
> 2022 08 16 16 26  9.0000000  0 23
C20  24431780.783 7 127222785.42407
C27  25309068.336 5 131790932.48605
C29  23080549.375 7 120186477.32707
C30  21867506.757 8 113869844.46808
C32  23142117.884 7 120507085.89407
E12  24232495.191 7 127342622.23707  24232495.020 7  95093513.86907  24232494.228 7  97574208.33607
E24  25097029.665 6 131885782.42506  25097031.002 7  98486139.23807  25097030.369 8 101055339.04608
E31  25493622.433 7 133969887.25007  25493627.533 7 100042469.20607  25493627.279 8 102652260.80108
E33  24246725.223 7 127417385.96407  24246725.535 6  95149364.26606  24246725.626 7  97631513.57707
G02  22579050.561 5 118653714.26005  22579047.352 2  92457414.86902
G05  20574186.526 4                                                  20574160.440 7  84247753.07107
G12  24515796.678 7 128831549.00307  24515791.776 1 100388079.82701  24515839.868 5
G13  24869292.868 5 130689008.79805  24869316.396 1 101835692.38101
G15  24955364.208 6 131141385.81206  24955371.446 2 102188070.70502  24955370.686 4 102188081.67204
G25  22109527.422 7 116186349.60207  22109530.172 5  90534831.17205  22109531.101 7  90534827.17007
G29  20616524.682 7 108340569.23407  20616524.041 6  84421222.97606  20616524.589 7  84421221.97307
J02  43751911.639 6 229917845.27506
R02  20662345.608 7 110258237.58107  20662352.564 7  85756429.05107
R03  22768923.598 7 121883951.90507  22768930.923 7  94798576.18707
R09  23360534.812 5 124743958.35205  23360541.098 6  97023104.17106
R15  22722697.959 6 121423229.12106  22722706.949 6  94440299.61306
R17  20011050.600 7 107083170.54007  20011052.550 6  83286926.59206
R18  20622253.136 7 110082991.17107  20622259.106 5  85620129.60105
> 2022 08 16 16 26 10.0000000  0 23
C20  24431226.452 7 127219901.35707
C27  25309609.933 4 131793754.44104
C29  23080246.887 7 120184901.20407
C30  21867705.006 8 113870876.68808
C32  23142052.500 7 120506745.01207
E12  24232355.640 7 127341888.84007  24232355.470 7  95092966.20107  24232354.632 7  97573646.37107
E24  25097117.814 6 131886246.35506  25097119.261 7  98486485.67707  25097118.666 8 101055694.51908
E31  25494163.345 7 133972729.58707  25494168.374 7 100044591.72507  25494168.111 8 102654438.69008
E33  24247005.693 7 127418859.85907  24247005.995 6  95150464.90006  24247006.124 7  97632642.92307
G02  22579487.671 5 118656010.83905  22579484.364 2  92459204.42702
G05  20574276.325 4                                                  20574250.347 7  84248120.80807
G12  24516602.897 7 128835786.36107  24516598.184 1 100391381.68001  24516646.840 5
G13  24868793.117 5 130686378.78805  24868815.722 1 101833643.01301
G15  24954761.838 6 131138220.21506  24954769.105 2 102185604.01502  24954768.077 4 102185615.00204
G25  22110151.108 7 116189627.06607  22110153.847 5  90537385.03905  22110155.003 6  90537381.02506
G29  20616412.568 7 108339979.24307  20616411.794 6  84420763.24106  20616412.339 7  84420762.23707
J02  43751931.734 6 229917950.58506
R02  20662107.841 7 110256969.05807  20662114.644 7  85755442.42207
R03  22768186.637 7 121880007.68207  22768194.302 7  94795508.45707
R09  23360137.072 5 124741837.11305  23360144.327 6  97021454.31206
R15  22723506.155 7 121427549.34307  22723515.193 6  94443659.78106
R17  20011300.812 7 107084509.35707  20011302.634 6  83287967.89006
R18  20621996.840 7 110081622.04207  20622002.266 5  85619064.69905
> 2022 08 16 16 26 11.0000000  0 23
C20  24430672.167 7 127217017.09707
C27  25310151.222 4 131796576.23504
C29  23079944.276 7 120183324.83407
C30  21867903.207 8 113871908.78808
C32  23141987.098 7 120506404.29707
E12  24232216.027 7 127341155.22707  24232215.901 7  95092418.37107  24232215.004 7  97573084.25507
E24  25097206.194 6 131886710.38206  25097207.562 7  98486832.17907  25097206.980 8 101056050.06808
E31  25494704.120 7 133975571.80207  25494709.230 7 100046714.16107  25494708.963 8 102656616.49908
E33  24247286.230 7 127420333.51307  24247286.400 6  95151565.34506  24247286.529 7  97633772.08207
G02  22579925.018 5 118658307.14705  22579921.330 2  92460993.75402
G05  20574365.342 4                                                  20574340.222 7  84248488.79607
G12  24517409.105 7 128840023.36207  24517404.512 1 100394683.19801  24517453.216 5
G13  24868293.140 6 130683748.43406  24868315.084 1 101831593.33401
G15  24954159.395 5 131135054.18605  24954166.630 2 102183136.96302  24954165.888 5 102183147.95605
G25  22110774.731 7 116192904.50407  22110777.526 5  90539938.88305  22110778.710 6  90539934.86806
G29  20616300.132 7 108339389.28307  20616299.557 6  84420303.53206  20616300.093 8  84420302.52808
J02  43751951.541 6 229918055.49806
R02  20661870.155 7 110255700.95207  20661877.152 7  85754456.12007
R03  22767449.706 7 121876063.24707  22767457.584 7  94792440.57007
R09  23359739.197 5 124739716.13105  23359746.858 6  97019804.66806
R15  22724314.459 7 121431869.40707  22724323.818 6  94447019.81906
R17  20011551.050 7 107085848.08307  20011552.921 6  83289009.10506
R18  20621740.304 7 110080252.75207  20621746.643 5  85617999.67205
> 2022 08 16 16 26 12.0000000  0 23
C20  24430117.709 7 127214131.54107
C27  25310692.401 4 131799396.51404
C29  23079641.204 7 120181747.14407
C30  21868101.185 8 113872939.66908
C32  23141921.386 7 120506062.66507
E12  24232076.181 7 127340420.26907  24232076.021 7  95091869.53707  24232075.133 7  97572521.11207
E24  25097294.239 6 131887173.36406  25097295.678 7  98487177.93407  25097295.137 8 101056404.84108
E31  25495244.652 7 133978412.80207  25495249.854 7 100048835.68707  25495249.571 8 102658793.36708
E33  24247566.399 7 127421805.77607  24247566.530 6  95152664.78306  24247566.693 7  97634900.18207
G02  22580361.900 5 118660602.07205  22580358.025 2  92462782.03202
G05  20574455.025 4                                                  20574429.723 7  84248856.13207
G12  24518215.104 7 128844258.91207  24518210.557 1 100397983.62601  24518259.168 5
G13  24867792.886 6 130681116.72506  24867814.504 1 101829542.67701
G15  24953556.798 5 131131886.59705  24953563.860 2 102180668.71802  24953563.516 5 102180679.75305
G25  22111398.113 7 116196180.83907  22111401.018 5  90542491.86805  22111402.403 6  90542487.84406
G29  20616187.568 7 108338798.24207  20616187.104 6  84419842.98106  20616187.555 7  84419841.97307
J02  43751971.182 6 229918158.89806
R02  20661632.199 7 110254432.13907  20661639.320 7  85753469.26107
R03  22766712.624 7 121872117.48107  22766720.742 7  94789371.64507
R09  23359342.666 5 124737594.32205  23359349.108 6  97018154.33606
R15  22725122.391 7 121436188.21207  22725132.334 6  94450378.88306
R17  20011800.767 7 107087185.60307  20011802.921 6  83290049.39006
R18  20621483.559 7 110078882.16607  20621491.299 5  85616933.66905
> 2022 08 16 16 26 13.0000000  0 23
C20  24429563.268 7 127211245.61907
C27  25311233.980 4 131802216.41804
C29  23079338.111 7 120180169.05807
C30  21868299.093 8 113873970.26608
C32  23141855.826 7 120505721.05107
E12  24231936.211 7 127339684.94807  24231936.110 7  95091320.43607  24231935.201 7  97571957.68107
E24  25097382.400 6 131887636.31606  25097383.790 7  98487523.63707  25097383.266 8 101056759.55508
E31  25495785.091 7 133981253.51707  25495790.397 7 100050957.00907  25495790.199 8 102660970.02108
E33  24247846.509 7 127423277.63207  24247846.542 6  95153763.89106  24247846.807 7  97636027.96607
G02  22580798.094 5 118662896.60805  22580794.768 2  92464569.98502
G05  20574544.573 4                                                  20574519.457 7  84249223.57007
G12  24519020.956 7 128848493.94907  24519016.527 1 100401283.64001  24519064.990 5
G13  24867292.289 6 130678484.53306  24867313.704 1 101827491.64901
G15  24952954.208 5 131128718.41505  24952961.018 2 102178199.99902  24952960.571 5 102178211.05405
G25  22112021.413 7 116199457.00007  22112024.443 5  90545044.72105  22112026.083 6  90545040.69606
G29  20616074.985 7 108338207.05407  20616074.630 6  84419382.31606  20616075.022 7  84419381.31307
J02  43751990.888 6 229918261.77206
R02  20661394.606 7 110253163.59407  20661401.675 7  85752482.61607
R03  22765975.457 7 121868171.36107  22765983.450 7  94786302.45207
R09  23358945.885 5 124735472.57405  23358952.113 6  97016504.14106
R15  22725930.384 7 121440506.72807  22725940.471 6  94453737.72806
R17  20012050.368 7 107088522.83807  20012053.428 6  83291089.48506
R18  20621226.769 7 110077511.27007  20621233.884 5  85615867.46205
> 2022 08 16 16 26 14.0000000  0 23
C20  24429009.010 7 127208359.48607
C27  25311775.702 4 131805036.04404
C29  23079035.014 7 120178590.72807
C30  21868496.968 8 113875000.72708
C32  23141790.274 7 120505379.59007
E12  24231796.362 7 127338949.37107  24231796.142 7  95090771.14607  24231795.197 7  97571394.06207
E24  25097470.197 6 131888099.33106  25097471.949 7  98487869.39507  25097471.359 8 101057114.33708
E31  25496325.562 7 133984094.10707  25496330.910 7 100053078.21507  25496330.745 8 102663146.57108
E33  24248126.453 7 127424749.20207  24248126.561 6  95154862.79306  24248126.842 7  97637155.53807
G02  22581235.709 5 118665190.86605  22581231.453 2  92466357.69202
G05  20574633.384 5                                                  20574609.268 7  84249591.21007
G12  24519826.656 7 128852728.62607  24519822.452 1 100404583.37901  24519870.464 5
G13  24866791.696 6 130675852.03306  24866812.569 1 101825440.33601
G15  24952352.107 5 131125549.73405  24952358.114 2 102175730.88602  24952357.890 5 102175741.91205
G25  22112644.855 7 116202733.12507  22112647.868 5  90547597.54405  22112649.483 6  90547593.52206
G29  20615962.440 7 108337615.89007  20615962.159 6  84418921.66706  20615962.649 7  84418920.65807
J02  43752010.110 6 229918364.19106
R02  20661157.182 7 110251895.47607  20661163.903 7  85751496.30307
R03  22765238.219 7 121864225.03607  22765246.193 7  94783233.08307
R09  23358548.957 5 124733351.12505  23358554.953 6  97014854.13206
R15  22726738.864 7 121444825.06807  22726748.684 6  94457096.44006
R17  20012299.918 7 107089859.95907  20012302.904 6  83292129.47606
R18  20620969.708 7 110076140.22607  20620976.499 5  85614801.06105
> 2022 08 16 16 26 15.0000000  0 23
C20  24428454.949 7 127205473.98807
C27  25312317.282 4 131807856.17504
C29  23078731.988 7 120177012.98407
C30  21868694.954 8 113876031.90108
C32  23141724.799 7 120505039.13707
E12  24231656.592 7 127338214.41107  24231656.296 7  95090222.31007  24231655.357 7  97570830.90707
E24  25097558.638 6 131888563.27706  25097560.285 7  98488215.85407  25097559.685 8 101057469.83408
E31  25496866.156 7 133986935.41907  25496871.563 7 100055199.97307  25496871.428 8 102665323.68208
E33  24248406.542 7 127426221.36907  24248406.649 6  95155962.12406  24248407.002 7  97638283.55307
G02  22581673.007 5 118667485.62205  22581668.210 2  92468145.81202
G05  20574722.356 5                                                  20574699.326 7  84249959.74107
G12  24520632.495 7 128856963.79107  24520628.462 1 100407883.48301  24520675.816 5
G13  24866291.180 6 130673220.09106  24866311.645 1 101823389.47101
G15  24951748.836 5 131122381.45305  24951755.276 2 102173262.10302  24951755.080 5 102173273.13505
G25  22113268.224 7 116206010.09507  22113271.467 5  90550151.02705  22113273.072 6  90550147.00706
G29  20615850.075 7 108337025.59107  20615849.863 6  84418461.69206  20615850.292 7  84418460.68807
J02  43752029.759 6 229918467.06206
R02  20660919.882 7 110250628.65107  20660926.563 7  85750510.99307
R03  22764501.156 7 121860279.38207  22764509.094 7  94780164.25807
R09  23358150.223 4 124731230.88104  23358157.865 6  97013204.97606
R15  22727547.194 6 121449144.07506  22727556.848 6  94460455.66806
R17  20012549.864 7 107091197.87407  20012552.911 6  83293170.07106
R18  20620712.855 7 110074769.85807  20620720.139 5  85613735.19305
> 2022 08 16 16 26 16.0000000  0 23
C20  24427901.049 7 127202588.40207
C27  25312859.433 4 131810676.12804
C29  23078429.097 7 120175435.11807
C30  21868892.984 8 113877063.06008
C32  23141659.558 7 120504698.97007
E12  24231516.740 7 127337479.34807  24231516.431 7  95089673.39907  24231515.487 7  97570267.68807
E24  25097646.988 6 131889027.43906  25097648.608 7  98488562.45507  25097647.994 8 101057825.48108
E31  25497406.712 7 133989776.71707  25497412.208 7 100057321.72607  25497412.113 8 102667500.77808
E33  24248686.632 7 127427693.36507  24248686.792 6  95157061.34406  24248687.125 7  97639411.44907
G02  22582110.050 5 118669780.28505  22582104.909 2  92469933.85902
G05  20574811.896 5                                                  20574789.316 7  84250328.58507
G12  24521438.354 7 128861198.71707  24521434.405 1 100411183.43401  24521482.077 5
G13  24865790.506 6 130670587.95706  24865810.805 1 101821338.45101
G15  24951145.999 4 131119212.88004  24951152.385 2 102170793.12402  24951153.083 5 102170804.06405
G25  22113891.798 7 116209287.15307  22113895.070 5  90552704.58005  22113896.658 6  90552700.55406
G29  20615737.644 7 108336435.41707  20615737.585 6  84418001.81706  20615737.936 8  84418000.81608
J02  43752049.489 6 229918569.64606
R02  20660682.547 7 110249362.36707  20660689.263 7  85749526.10107
R03  22763764.040 7 121856333.63807  22763771.832 7  94777095.33807
R09  23357753.777 4 124729110.90604  23357761.003 6  97011556.18106
R15  22728355.354 6 121453463.02606  22728364.924 6  94463814.83906
R17  20012799.819 7 107092535.82407  20012803.337 6  83294210.69506
R18  20620456.072 7 110073399.41907  20620463.251 5  85612669.29705
> 2022 08 16 16 26 17.0000000  0 23
C20  24427347.230 7 127199702.52407
C27  25313401.555 4 131813495.74804
C29  23078126.161 7 120173856.92207
C30  21869091.031 8 113878094.00308
C32  23141594.220 7 120504358.89307
E12  24231376.800 7 127336743.96207  24231376.522 7  95089124.25207  24231375.589 7  97569704.21007
E24  25097735.404 6 131889491.58706  25097736.910 7  98488909.06207  25097736.334 8 101058181.13108
E31  25497947.287 7 133992617.81107  25497952.823 7 100059443.31307  25497952.764 8 102669677.71608
E33  24248966.683 7 127429165.00707  24248966.761 6  95158160.30006  24248967.166 7  97640539.07907
G02  22582546.990 5 118672074.50405  22582541.464 2  92471721.56002
G05  20574901.467 5                                                  20574879.620 7  84250697.57407
G12  24522244.025 7 128865433.19907  24522240.276 1 100414483.04501  24522287.872 5
G13  24865289.665 6 130667955.44706  24865310.060 1 101819287.09401
G15  24950544.096 4 131116043.67004  24950549.347 2 102168323.61602  24950550.255 4 102168334.55504
G25  22114515.224 7 116212564.10307  22114518.651 5  90555258.04405  22114520.236 6  90555254.01406
G29  20615625.297 7 108335845.18107  20615625.299 6  84417541.89306  20615625.642 7  84417540.88807
J02  43752068.679 6 229918671.74006
R02  20660445.435 7 110248096.41707  20660451.940 7  85748541.47607
R03  22763026.739 7 121852387.57707  22763034.749 7  94774026.18807
R09  23357357.730 4 124726991.22804  23357364.486 6  97009907.49506
R15  22729163.507 6 121457781.69306  22729173.325 6  94467173.81206
R17  20013049.974 7 107093873.58807  20013054.098 6  83295251.18006
R18  20620199.345 7 110072028.72107  20620206.650 5  85611603.21205
> 2022 08 16 16 26 18.0000000  0 24
C20  24426793.227 7 127196816.12807
C27  25313944.181 4 131816314.74104
C29  23077823.035 7 120172278.19307
C30  21869288.891 8 113879124.52508
C32  23141528.786 7 120504018.66707
E12  24231236.783 7 127336008.05007  24231236.522 7  95088574.70607  24231235.569 7  97569140.32807
E19  29061207.448 5 152717677.33715                                  29061210.635 6 117017451.64916
E24  25097823.748 6 131889955.53806  25097825.157 7  98489255.51407  25097824.630 8 101058536.61608
E31  25498487.753 7 133995458.48007  25498493.380 7 100061564.59107  25498493.336 8 102671854.33008
E33  24249246.505 7 127430636.09807  24249246.743 6  95159258.84406  24249247.095 7  97641666.27607
G02  22582983.416 5 118674368.20205  22582977.917 2  92473508.85102
G05  20574992.026 5                                                  20574969.497 7  84251066.54607
G12  24523049.735 7 128869667.03507  24523045.987 1 100417782.13001  24523093.855 5
G13  24864788.843 6 130665322.31706  24864809.157 1 101817235.32101
G15  24949941.635 4 131112873.67804  24949946.147 2 102165853.50002  24949947.136 5 102165864.54805
G25  22115138.602 7 116215840.75207  22115142.188 5  90557811.27505  22115143.767 7  90557807.24907
G29  20615512.916 7 108335254.66507  20615512.958 6  84417081.75106  20615513.334 7  84417080.75007
J02  43752087.896 6 229918773.10406
R02  20660208.216 7 110246830.60307  20660214.816 7  85747556.95307
R03  22762289.449 7 121848440.98807  22762297.821 7  94770956.61807
R09  23356960.968 4 124724871.44204  23356967.490 6  97008258.77806
R15  22729971.658 6 121462099.91106  22729981.161 6  94470532.42006
R17  20013299.993 7 107095210.92507  20013304.160 6  83296291.31906
R18  20619942.773 7 110070657.60007  20619950.864 5  85610536.78705
> 2022 08 16 16 26 19.0000000  0 24
C20  24426239.166 7 127193929.10807
C27  25314486.113 5 131819132.99405
C29  23077519.767 7 120170698.79807
C30  21869486.672 8 113880154.48208
C32  23141463.541 7 120503678.19407
E12  24231096.671 7 127335271.49607  24231096.340 7  95088024.67607  24231095.336 7  97568575.95107
E19  29060720.944 5 152715122.70705                                  29060724.489 6 117015494.18306
E24  25097912.181 6 131890419.11306  25097913.404 7  98489601.71207  25097912.828 8 101058891.83708
E31  25499028.166 7 133998298.59207  25499033.801 7 100063685.44907  25499033.774 8 102674030.51508
E33  24249526.281 7 127432106.49007  24249526.534 6  95160356.84806  24249526.932 7  97642792.93007
G02  22583420.267 5 118676661.15605  22583414.298 2  92475295.56702
G05  20575082.863 5                                                  20575059.524 7  84251435.39607
G12  24523855.151 7 128873900.06707  24523851.549 2 100421080.60402  24523899.557 5 100421268.51415
G13  24864288.020 6 130662688.49406  24864308.193 1 101815182.96801
G15  24949338.221 5 131109702.92105  24949342.791 2 102163382.79502  24949344.566 5 102163393.73705
G25  22115761.892 7 116219116.95007  22115765.617 5  90560364.15505  22115767.151 7  90560360.12707
G29  20615400.482 7 108334663.73107  20615400.537 6  84416621.28306  20615400.898 8  84416620.27908
J02  43752107.382 6 229918873.66406
R02  20659970.996 7 110245564.79707  20659977.389 7  85746572.44207
R03  22761551.988 7 121844493.71407  22761560.529 7  94767886.53007
R09  23356563.271 4 124722751.47904  23356570.296 6  97006609.96406
R15  22730779.761 6 121466417.54606  22730788.916 6  94473890.56806
R17  20013549.883 7 107096547.70707  20013553.912 6  83297331.03206
R18  20619685.679 7 110069285.87707  20619693.753 5  85609469.86105
> 2022 08 16 16 26 20.0000000  0 24
C20  24425685.204 7 127191042.13707
C27  25315027.892 5 131821951.23305
C29  23077216.473 7 120169119.41507
C30  21869684.443 8 113881184.58208
C32  23141398.236 7 120503338.13407
E12  24230956.613 7 127334534.94507  24230956.138 7  95087474.66107  24230955.171 7  97568011.58507
E19  29060234.789 5 152712567.91805                                  29060238.468 6 117013536.63606
E24  25098000.622 6 131890883.07306  25098001.682 7  98489948.15707  25098001.106 8 101059247.32208
E31  25499568.549 7 134001138.83107  25499574.254 7 100065806.41107  25499574.257 8 102676206.80908
E33  24249806.033 7 127433576.86207  24249806.405 7  95161454.86407  24249806.732 7  97643919.58607
G02  22583856.809 5 118678954.10305  22583850.675 2  92477082.27702
G05  20575173.301 5                                                  20575149.694 7  84251804.68107
G12  24524660.572 7 128878133.03007  24524657.094 2 100424378.99902  24524704.985 5 100424566.92005
G13  24863787.507 6 130660054.60406  24863807.523 1 101813130.58901
G15                                                                  24948741.528 5 102160922.85605
G25  22116385.333 7 116222393.37907  22116389.086 5  90562917.21805  22116390.443 7  90562913.20907
G29  20615288.075 7 108334073.08107  20615288.169 6  84416161.03606  20615288.563 8  84416160.03308
J02  43752126.566 6 229918974.04706
R02  20659733.884 7 110244299.69107  20659740.316 7  85745588.46807
R03  22760814.649 7 121840546.48907  22760823.552 7  94764816.47407
R09  23356166.924 4 124720632.08504  23356173.610 6  97004961.54206
R15  22731587.814 6 121470735.28006  22731596.663 6  94477248.78806
R17  20013799.729 7 107097884.65907  20013803.771 6  83298370.90706
R18  20619428.791 7 110067914.21207  20619436.156 5  85608403.00005
> 2022 08 16 16 26 21.0000000  0 24
C20  24425131.190 7 127188155.21807
C27  25315569.242 5 131824769.44205
C29  23076913.210 7 120167540.04707
C30  21869882.227 8 113882214.79608
C32  23141333.018 7 120502998.50007
E12  24230816.485 7 127333798.43707  24230815.957 7  95086924.66207  24230815.014 7  97567447.23807
E19  29059747.856 5 152710012.98405                                  29059752.372 6 117011578.99506
E24  25098088.734 6 131891347.34506  25098089.998 7  98490294.86307  25098089.461 8 101059603.07408
E31  25500109.027 7 134003979.20007  25500114.737 7 100067927.46307  25500114.770 8 102678383.19408
E33  24250085.905 7 127435047.22007  24250086.278 7  95162552.86107  24250086.532 7  97645046.22707
G02  22584292.971 5 118681246.99805  22584287.056 2  92478868.93802
G05  20575263.744 5                                                  20575240.062 7  84252174.36807
G12  24525466.071 6 128882365.87006  24525462.648 2 100427677.30302  24525510.092 5 100427865.28405
G13  24863286.622 6 130657420.67306  24863306.661 1 101811078.16301
G15                                                                  24948138.981 5 102158451.77805
G25  22117008.813 7 116225670.04307  22117012.609 5  90565470.46205  22117013.617 7  90565466.45607
G29  20615175.776 7 108333482.69807  20615175.851 6  84415700.99606  20615176.128 8  84415699.98808
J02  43752145.476 6 229919074.26706
R02  20659496.952 7 110243035.28007  20659503.221 7  85744605.04307
R03  22760077.208 7 121836599.31107  22760086.420 7  94761746.45407
R09  23355770.295 5 124718513.20305  23355776.488 6  97003313.52906
R15  22732396.063 6 121475053.09106  22732404.629 6  94480607.09106
R17  20014049.805 7 107099221.79107  20014053.556 6  83299410.88606
R18  20619171.925 7 110066542.62307  20619180.192 5  85607336.20005
> 2022 08 16 16 26 22.0000000  0 24
C20  24424577.039 7 127185267.95807
C27  25316110.956 5 131827587.22405
C29  23076609.802 7 120165960.29407
C30  21870079.941 8 113883244.75008
C32  23141267.848 7 120502658.90307
E12  24230676.220 7 127333061.55807  24230675.739 7  95086374.40207  24230674.783 7  97566882.61507
E19  29059261.799 5 152707457.63005                                  29059266.135 6 117009620.96706
E24  25098176.975 6 131891811.58606  25098178.301 7  98490641.52707  25098177.823 8 101059958.78708
E31  25500649.350 7 134006819.31107  25500655.220 7 100070048.32507  25500655.177 8 102680559.38608
E33  24250365.753 7 127436517.18607  24250366.047 6  95163650.55806  24250366.257 7  97646172.55407
G02  22584729.871 5 118683539.46205  22584723.316 2  92480655.28002
G05  20575353.624 5                                                  20575330.466 7  84252544.17507
G12  24526271.479 6 128886598.22806  24526268.081 2 100430975.26402  24526314.649 5 100431163.21805
G13  24862785.398 6 130654786.30106  24862805.624 1 101809025.43501
G15                                                                  24947534.800 5 102155980.21105
G25  22117632.196 7 116228946.57107  22117636.101 5  90568023.59805  22117636.925 7  90568019.57807
G29  20615063.404 7 108332892.19807  20615063.520 6  84415240.86506  20615063.701 8  84415239.86208
J02  43752164.671 6 229919173.97906
R02  20659260.108 7 110241771.16307  20659266.318 7  85743621.83807
R03  22759339.828 7 121832651.83007  22759348.887 7  94758676.19007
R09  23355373.098 5 124716394.48005  23355379.168 6  97001665.61906
R15  22733204.049 6 121479370.61306  22733212.609 6  94483965.15306
R17  20014299.689 7 107100558.67907  20014303.089 6  83300450.67106
R18  20618914.971 7 110065170.76707  20618923.788 5  85606269.21605
> 2022 08 16 16 26 23.0000000  0 24
C20  24424022.751 7 127182380.53507
C27  25316652.228 5 131830404.76505
C29  23076306.328 7 120164380.36207
C30  21870277.648 8 113884274.62708
C32  23141202.671 7 120502319.50907
E12  24230535.973 7 127332324.49807  24230535.445 7  95085824.00407  24230534.526 7  97566317.85607
E19  29058775.212 5 152704901.85705                                  29058779.742 6 117007662.67306
E24  25098265.509 6 131892275.97306  25098266.634 7  98490988.30507  25098266.202 8 101060314.60608
E31  25501189.729 7 134009659.35107  25501195.733 7 100072169.13307  25501195.581 8 102682735.52308
E33  24250645.289 7 127437986.92807  24250645.745 7  95164748.09707  24250645.942 7  97647298.72707
G02  22585165.930 5 118685831.71105  22585159.550 2  92482441.43002
G05  20575443.320 5                                                  20575420.802 7  84252914.23607
G12  24527076.794 6 128890830.26106  24527073.479 2 100434272.93002  24527121.441 5 100434461.02005
G13  24862284.035 6 130652151.67306  24862304.619 1 101806972.46401
G15                                                                  24946931.344 5 102153508.37105
G25  22118255.513 7 116232223.12307  22118259.584 5  90570576.75405  22118260.192 7  90570572.73507
G29  20614951.079 7 108332301.77507  20614951.192 6  84414780.79406  20614951.307 8  84414779.78408
J02  43752183.676 6 229919273.29606
R02  20659023.558 7 110240507.50307  20659029.537 7  85742638.99407
R03  22758602.508 7 121828704.20607  22758611.315 7  94755605.82907
R09  23354976.673 5 124714276.10605  23354982.150 6  97000017.97306
R15  22734011.946 6 121483688.02206  22734020.315 6  94487323.14706
R17  20014549.337 7 107101895.47207  20014553.192 6  83301490.40306
R18  20618657.888 7 110063798.80507  20618667.010 5  85605202.11805
> 2022 08 16 16 26 24.0000000  0 24
C20  24423468.421 7 127179492.89207
C27  25317193.301 5 131833222.04805
C29  23076002.665 7 120162800.17307
C30  21870475.320 8 113885304.36308
C32  23141137.457 7 120501980.29007
E12  24230395.593 7 127331587.20707  24230395.155 7  95085273.42307  24230394.211 7  97565752.92307
E19  29058288.703 5 152702345.70905                                  29058293.297 6 117005704.05906
E24  25098353.588 6 131892740.41406  25098354.967 7  98491335.12207  25098354.632 8 101060670.47508
E31  25501730.015 7 134012499.25707  25501736.194 7 100074289.83107  25501735.996 8 102684911.54108
E33  24250924.926 7 127439456.39307  24250925.357 7  95165845.40407  24250925.578 7  97648424.66507
G02  22585602.374 5 118688123.74305  22585595.735 2  92484227.41702
G05  20575533.580 5                                                  20575511.030 7  84253284.51607
G12  24527882.046 6 128895061.94606  24527878.818 2 100437570.34802  24527926.443 5 100437758.42205
G13  24861782.315 6 130649516.76406  24861803.377 1 101804919.26201
G15                                                                  24946327.321 5 102151036.14405
G25  22118878.851 7 116235499.65107  22118883.080 5  90573129.89105  22118883.618 7  90573125.87707
G29  20614838.642 7 108331711.35107  20614838.870 6  84414320.72406  20614838.920 8  84414319.71508
J02  43752202.374 6 229919372.22606
R02  20658786.904 7 110239244.25307  20658792.578 7  85741656.46807
R03  22757864.991 7 121824756.37307  22757873.965 7  94752535.29007
R09  23354580.388 5 124712157.95105  23354585.415 6  96998370.52406
R15  22734819.663 6 121488005.28106  22734828.303 6  94490681.02906
R17  20014799.196 7 107103232.16307  20014803.197 6  83302530.04706
R18  20618400.838 7 110062426.66207  20618410.282 5  85604134.92305
> 2022 08 16 16 26 25.0000000  0 24
C20  24422914.088 7 127176605.09507
C27  25317733.713 5 131836039.01605
C29  23075699.021 7 120161219.78307
C30  21870672.997 8 113886334.01108
C32  23141072.347 7 120501641.27807
E12  24230255.190 7 127330849.72907  24230254.789 7  95084722.71607  24230253.841 7  97565187.84407
E19  29057802.248 5 152699789.23505                                  29057806.800 6 117003745.17306
E24  25098442.006 6 131893204.97306  25098443.377 7  98491682.03107  25098443.055 8 101061026.43808
E31  25502270.204 7 134015339.06407  25502276.616 7 100076410.47507  25502276.385 8 102687087.50208
E33  24251204.513 7 127440925.61807  24251204.899 6  95166942.56006  24251205.157 7  97649550.43907
G02  22586038.938 5 118690415.45405  22586031.879 2  92486013.16502
G05  20575624.443 5                                                  20575601.479 7  84253655.04507
G12  24528687.476 6 128899293.30406  24528684.059 2 100440867.49902  24528730.982 5 100441055.58205
G13  24861280.317 6 130646881.57906  24861302.238 1 101802865.89301
G15                                                                  24945723.750 5 102148563.59405
G25  22119502.310 7 116238776.19807  22119506.608 5  90575683.04405  22119506.921 7  90575679.03507
G29  20614726.181 7 108331120.98907  20614726.552 6  84413860.70106  20614726.620 8  84413859.69708
J02  43752220.757 6 229919470.78006
R02  20658550.303 7 110237981.44607  20658555.877 7  85740674.27507
R03  22757127.619 7 121820808.33707  22757136.661 7  94749464.57907
R09  23354183.099 5 124710040.09005  23354188.974 6  96996723.31906
R15  22735627.770 6 121492322.39606  22735636.239 6  94494038.77406
R17  20015048.822 7 107104568.83007  20015053.252 6  83303569.67206
R18  20618143.784 7 110061054.38107  20618153.922 5  85603067.61605
> 2022 08 16 16 26 26.0000000  0 24
C20  24422359.676 7 127173717.12107
C27  25318274.203 5 131838855.61105
C29  23075395.326 7 120159639.16507
C30  21870870.772 8 113887363.57908
C32  23141007.154 7 120501302.46907
E12  24230114.795 7 127330112.09407  24230114.417 7  95084171.91607  24230113.542 7  97564622.67907
E19  29057315.238 4 152697232.35404                                  29057320.175 6 117001786.07106
E24  25098530.762 5 131893669.78805  25098531.826 7  98492029.16307  25098531.527 8 101061382.57808
E31  25502810.420 7 134018178.79107  25502816.964 7 100078531.02407  25502816.782 8 102689263.39208
E33  24251484.116 7 127442394.65607  24251484.462 7  95168039.57007  24251484.748 7  97650676.07207
G02  22586473.683 5 118692706.98805  22586468.054 2  92487798.78202
G05  20575713.880 5                                                  20575691.971 6  84254025.82906
G12  24529492.947 6 128903524.40606  24529489.300 2 100444164.45002  24529535.976 6 100444352.50406
G13  24860778.225 6 130644246.11006  24860801.211 1 101800812.27501
G15                                                                  24945120.184 6 102146090.72706
G25  22120125.609 7 116242052.77707  22120130.108 5  90578236.21705  22120130.125 7  90578232.17207
G29  20614613.777 7 108330530.69907  20614614.247 6  84413400.73006  20614614.289 8  84413399.70908
J02  43752239.845 6 229919569.08906
R02  20658313.780 7 110236719.12607  20658319.090 7  85739692.48707
R03  22756390.186 7 121816860.07107  22756399.072 7  94746393.69407
R09  23353787.318 5 124707922.66205  23353792.404 6  96995076.35606
R15  22736435.999 6 121496639.37206  22736444.398 6  94497396.39306
R17  20015298.699 7 107105905.48707  20015303.143 6  83304609.30006
R18  20617886.367 7 110059681.97207
> 2022 08 16 16 26 27.0000000  0 24
C20  24421805.326 7 127170828.91407
C27  25318814.524 4 131841672.06704
C29  23075091.376 7 120158058.29807
C30  21871068.512 8 113888392.95708
C32  23140942.461 7 120500963.80307
E12  24229974.550 7 127329374.14907  24229974.044 7  95083620.85807  24229972.977 6  97564057.25806
E19  29056827.619 5 152694675.03005                                  29056833.674 6 116999826.58406
E24  25098619.465 5 131894134.52605  25098620.166 7  98492376.21407  25098619.962 7 101061738.70007
E31  25503350.647 6 134021018.30406  25503357.242 7 100080651.50207  25503357.159 8 102691439.18908
E33  24251763.590 7 127443863.34907  24251764.023 7  95169136.33307  24251764.278 7  97651801.45607
G02  22586908.959 5 118694998.12605  22586904.091 2  92489584.09002
G05  20575803.009 5                                                  20575782.551 6  84254396.77406
G12  24530298.260 6 128907754.95806  24530294.411 2 100447461.01802  24530340.179 5 100447649.23205
G13  24860275.747 5 130641610.39205  24860299.759 1 101798758.63601
G15  24944540.711 5 131084323.28205  24944513.300 1 102143606.47701  24944516.347 5 102143617.36405
G25  22120749.437 7 116245329.22307  22120753.587 5  90580789.30505  22120753.325 6  90580785.34106
G29  20614501.530 8 108329940.38208  20614501.929 6  84412940.73806  20614502.022 7  84412939.72407
J02  43752257.994 6 229919666.85706
R02  20658077.476 8 110235457.13708  20658082.457 7  85738710.93707
R03  22755652.804 8 121812911.58008  22755661.211 7  94743322.67707
R09  23353391.254 5 124705805.40005  23353396.197 6  96993429.60906
R15  22737243.743 6 121500956.09106  22737252.386 6  94500753.85306
R17  20015548.319 7 107107241.98007  20015552.723 6  83305648.76506
R18  20617629.102 7 110058309.39407
> 2022 08 16 16 26 28.0000000  0 24
C20  24421251.232 7 127167940.70807
C27  25319353.869 4 131844488.27504
C29  23074787.617 7 120156477.37507
C30  21871266.330 8 113889422.41308
C32  23140877.704 7 120500625.47407
E12  24229834.202 7 127328636.16907  24229833.558 7  95083069.75507  24229832.448 6  97563491.77906
E19  29056340.610 5 152692117.53705                                  29056347.234 6 116997866.94506
E24  25098707.629 5 131894599.54505  25098708.501 7  98492723.46707  25098708.496 7 101062095.01207
E31  25503890.726 6 134023857.93106  25503897.525 7 100082772.00507  25503897.534 8 102693615.00508
E33  24252043.004 7 127445331.98207  24252043.641 7  95170233.02107  24252043.720 7  97652926.76407
G02  22587344.437 5 118697289.20305  22587340.092 2  92491369.33402
G05  20575892.607 4                                                  20575873.218 6  84254768.08906
G12  24531103.314 6 128911985.46006  24531099.535 2 100450757.55802  24531143.782 5 100450945.73805
G13  24859773.187 5 130638974.49305  24859798.320 1 101796704.74501
G15  24943937.504 5 131081148.92905  24943909.269 1 102141133.03901  24943912.075 5 102141143.92205
G25  22121372.934 7 116248605.92207  22121377.110 5  90583342.60105  22121376.911 6  90583338.60506
G29  20614389.240 8 108329350.26208  20614389.646 6  84412480.90206  20614389.883 7  84412479.88907
J02  43752276.198 6 229919764.39106
R02  20657841.240 7 110234195.73707  20657846.036 7  85737729.84507
R03  22754915.311 8 121808963.05808  22754923.371 7  94740251.61307
R09  23352995.168 5 124703688.58805  23352999.490 6  96991783.18306
R15  22738052.261 6 121505272.85806  22738060.212 6  94504111.32106
R17  20015797.871 7 107108578.55407  20015802.573 6  83306688.33206
R18  20617371.829 7 110056936.80607
> 2022 08 16 16 26 29.0000000  0 24
C20  24420697.243 7 127165052.05807
C27  25319892.718 4 131847304.05604
C29  23074483.753 7 120154895.92407
C30  21871464.073 8 113890451.46008
C32  23140813.073 7 120500287.01907
E12  24229693.691 7 127327897.65807  24229693.042 7  95082518.29107  24229691.784 6  97562925.91206
E19  29055854.077 4 152689559.50404                                  29055860.541 6 116995906.86206
E24  25098796.470 5 131895064.39105  25098796.810 7  98493070.59207  25098796.949 7 101062451.18407
E31  25504431.023 6 134026697.14106  25504437.767 7 100084892.21607  25504437.813 7 102695790.52307
E33  24252322.455 7 127446800.02507  24252323.148 7  95171329.31307  24252323.037 7  97654051.65507
G02  22587780.014 5 118699579.71305  22587776.017 2  92493154.14902
G05  20575982.933 5                                                  20575963.856 7  84255139.44407
G12  24531908.333 6 128916215.29906  24531904.539 2 100454053.57702  24531946.402 6 100454241.68306
G13  24859271.273 5 130636338.07805  24859296.903 1 101794650.41701
G15                                                                  24943307.350 5 102138669.85305
G25  22121996.541 7 116251882.28207  22122000.552 5  90585895.61405  22122000.380 6  90585891.63706
G29  20614277.050 8 108328759.90108  20614277.319 6  84412020.87606  20614277.586 8  84412019.86908
J02  43752294.493 6 229919861.22506
R02  20657604.742 8 110232934.46208  20657609.419 7  85736748.85607
R03  22754177.549 8 121805014.04708  22754185.587 6  94737180.19606
R09  23352599.605 6 124701571.73506  23352603.381 6  96990136.75006
R15  22738860.298 6 121509589.19706  22738867.929 6  94507468.44006
R17  20016047.230 7 107109914.70507  20016052.202 6  83307727.53706
R18  20617114.408 7 110055563.77207
> 2022 08 16 16 26 30.0000000  0 24
C20  24420143.712 8 127162162.99108
C27  25320433.546 4 131850119.44404
C29  23074180.029 7 120153314.07507
C30  21871661.702 8 113891480.22008
C32  23140748.312 7 120499948.61007
E12  24229553.078 7 127327158.77307  24229552.449 7  95081966.52307  24229551.112 6  97562359.75806
E19  29055366.852 4 152687000.80504                                  29055373.697 6 116993946.30906
E24  25098885.001 5 131895529.15405  25098885.161 7  98493417.65207  25098885.387 7 101062807.30707
E31  25504971.378 6 134029536.08706  25504977.980 7 100087012.21107  25504978.024 7 102697965.82307
E33  24252601.688 7 127448267.68307  24252602.540 7  95172425.29707  24252602.264 8  97655176.22208
G02  22588215.840 5 118701869.79005  22588211.853 2  92494938.62102
G05  20576068.677 5                                                  20576054.622 7  84255510.88007
G12  24532713.278 6 128920444.63806  24532709.467 2 100457349.16302  24532748.597 6 100457537.25106
G13  24858768.820 5 130633701.15105
G15                                                                  24942703.303 5 102136195.36005
G25  22122620.082 7 116255158.50607  22122624.004 5  90588448.53505  22122623.888 7  90588444.52907
G29  20614164.738 7 108328169.40307  20614164.978 6  84411560.74706  20614165.144 8  84411559.74308
J02  43752312.531 6 229919957.49006
R02  20657368.425 7 110231673.43007  20657372.983 7  85735768.05307
R03  22753439.960 8 121801064.71508  22753447.704 6  94734108.50006
R09  23352203.477 6 124699455.00306  23352206.879 6  96988490.39906
R15  22739668.220 6 121513905.19506  22739675.431 6  94510825.33806
R17  20016296.680 7 107111250.60907  20016301.615 6  83308766.58006
R18  20616857.118 7 110054190.44307  20616858.898 4  85597729.66104
> 2022 08 16 16 26 31.0000000  0 23
C27  25320974.629 4 131852933.82704
C29  23073876.141 7 120151731.41407
C30  21871859.203 8 113892508.25008
C32  23140683.473 7 120499609.75107
E12  24229412.406 7 127326419.06407  24229411.698 7  95081414.14207  24229410.348 6  97561792.96306
E19  29054879.682 4 152684441.12804                                  29054886.477 6 116991985.00006
E24  25098973.732 5 131895993.40205  25098973.465 7  98493764.32207  25098973.723 7 101063163.02407
E31  25505511.567 6 134032374.28806  25505518.112 7 100089131.65507  25505518.118 7 102700140.55407
E33  24252880.820 7 127449734.46207  24252881.734 7  95173520.62207  24252881.360 7  97656300.12007
G02  22588651.117 5 118704158.99305  22588647.545 2  92496722.42302
G05  20576157.246 5 108128488.55415                                  20576145.398 7  84255882.07107
G12  24533518.038 6 128924672.99906  24533514.176 2 100460643.99002
G13  24858266.969 5 130631063.34805
G15                                                                  24942099.032 5 102133720.00005
G25  22123243.476 7 116258434.08507  22123247.330 5  90591000.93905  22123247.255 7  90590996.95907
G29  20614052.304 8 108327578.31708  20614052.526 6  84411100.15906  20614052.751 8  84411099.15308
J02  43752330.506 6 229920052.76306
R02  20657132.137 7 110230412.22907  20657136.535 7  85734787.11607
R03  22752701.837 7 121797114.56507  22752709.622 6  94731036.17406
R09  23351806.789 6 124697337.94106  23351810.968 6  96986843.77506
R15  22740476.147 6 121518220.39706  22740482.799 5  94514181.60505
R17  20016545.855 7 107112585.78907  20016550.817 6  83309805.05506
R18  20616599.628 7 110052816.31607  20616601.300 4  85596660.90004
> 2022 08 16 16 26 32.0000000  0 23
C27  25321516.126 4 131855747.98804
C29  23073572.062 7 120150148.57407
C30  21872056.655 8 113893536.26108
C32  23140618.572 7 120499271.16507
E12  24229271.618 7 127325679.22007  24229270.932 7  95080861.66107  24229269.618 6  97561226.06806
E19                                                                  29054399.417 6 116990023.47106
E24  25099061.977 5 131896457.80905  25099061.932 7  98494111.13507  25099062.110 7 101063518.89207
E31  25506051.971 6 134035212.48106  25506058.193 7 100091251.07607  25506058.230 7 102702315.26807
E33  24253159.998 7 127451201.08807  24253160.827 7  95174615.81307  24253160.422 8  97657423.88308
G02  22589086.725 5 118706447.94705  22589083.153 2  92498506.01802
G05                                                                  20576236.213 7  84256253.54707
G12  24534322.591 6 128928901.09606  24534318.871 3 100463938.61503
G13  24857765.046 5 130628425.25505
G15                                                                  24941494.343 5 102131244.35105
G25  22123866.916 7 116261709.75807  22123870.670 5  90593553.41405  22123870.568 7  90593549.42807
G29  20613939.879 7 108326987.34407  20613940.087 6  84410639.66206  20613940.239 8  84410638.65308
J02  43752348.418 6 229920147.69906
R02  20656895.940 7 110229151.58007  20656900.276 7  85733806.60407
R03  22751963.651 7 121793164.30707  22751971.752 7  94727963.76007
R09  23351410.445 5 124695221.23905  23351414.865 6  96985197.46206
R15  22741283.293 6 121522535.56606  22741290.548 5  94517537.86905
R17  20016795.190 7 107113920.99507  20016800.576 6  83310843.54706
R18  20616342.108 7 110051442.09407  20616344.995 4  85595592.14804
> 2022 08 16 16 26 33.0000000  0 23
C27  25322055.987 4 131858562.21604
C29  23073267.929 7 120148565.73507
C30  21872254.086 8 113894564.37608
C32  23140553.594 7 120498932.99307
E12  24229130.751 7 127324939.37207  24229130.107 6  95080309.18506  24229128.887 6  97560659.18506
E19  29053906.360 4 152679321.08804                                  29053912.442 6 116988061.83406
E24  25099150.371 5 131896922.57105  25099150.388 6  98494458.19706  25099150.606 7 101063874.99907
E31  25506591.230 5 134038050.81405  25506598.360 7 100093370.59107  25506598.343 8 102704490.07208
E33  24253439.142 7 127452667.66407  24253439.910 7  95175710.99607  24253439.551 8  97658547.63708
G02  22589521.787 5 118708737.02005  22589518.711 2  92500289.71302
G05                                                                  20576327.140 7  84256625.43107
G12  24535126.798 6 128933129.10006  24535123.633 3 100467233.15003
G13  24857262.963 5 130625787.19005
G15                                                                  24940889.935 5 102128768.57505
G25  22124490.727 6 116264985.64306  22124494.068 5  90596106.05705  22124493.893 7  90596102.07507
G29  20613827.464 8 108326396.64808  20613827.697 6  84410179.37006  20613827.779 8  84410178.35508
J02  43752366.485 6 229920242.48506
R02  20656659.798 7 110227891.63307  20656664.336 7  85732826.65507
R03  22751225.538 7 121789214.03907  22751233.957 7  94724891.35607
R09  23351014.008 5 124693105.02805  23351018.471 6  96983551.54406
R15  22742090.378 5 121526850.77505  22742098.151 5  94520894.12405
R17  20017044.765 7 107115256.39407  20017049.522 6  83311882.18806
R18  20616084.620 7 110050067.98107  20616090.202 5  85594523.44905
> 2022 08 16 16 26 34.0000000  0 23
C27  25322596.427 4 131861376.12104
C29  23072963.985 7 120146982.77107
C30  21872451.502 8 113895592.47208
C32  23140488.626 7 120498595.07707
E12  24228989.826 7 127324199.41007  24228989.204 6  95079756.63006  24228988.010 6  97560092.20906
E19  29053418.496 4 152676760.72904                                  29053425.294 6 116986099.95806
E24  25099238.906 5 131897387.48705  25099238.817 6  98494805.41106  25099239.157 7 101064231.26607
E31  25507131.025 5 134040889.05205  25507138.590 7 100095490.07807  25507138.449 8 102706664.85308
E33  24253718.296 7 127454134.08907  24253718.852 7  95176806.03807  24253718.619 8  97659671.25608
G02  22589956.366 5 118711025.71305  22589954.229 2  92502073.10102
G05                                                                  20576418.138 7  84256997.59907
G12  24535930.993 6 128937356.81906  24535928.360 3 100470527.44603
G13  24856760.966 5 130623148.94005  24856788.010 1 101784373.14201
G15                                                                  24940285.780 5 102126292.47605
G25  22125114.425 7 116268261.60207  22125117.492 5  90598658.76105  22125117.246 7  90598654.78007
G29  20613715.034 8 108325806.05108  20613715.316 7  84409719.15707  20613715.410 8  84409718.14708
J02  43752384.595 6 229920336.95206
R02  20656423.801 7 110226632.23407  20656428.499 7  85731847.10907
R03  22750487.565 8 121785263.67708  22750496.074 7  94721818.84907
R09  23350618.090 5 124690989.22505  23350622.378 6  96981905.91406
R15  22742896.857 5 121531165.94605  22742906.021 5  94524250.31305
R17  20017294.296 7 107116591.75807  20017299.093 6  83312920.80306
R18  20615827.290 7 110048693.81607  20615836.104 5  85593454.59605
> 2022 08 16 16 26 35.0000000  0 23
C27  25323136.693 3
C29  23072659.883 7 120145399.29507
C30  21872648.808 8 113896620.14508
C32  23140423.689 7 120498257.06707
E12  24228848.983 7 127323458.97107  24228848.308 7  95079203.67207  24228847.161 6  97559524.82606
E19  29052931.169 5 152674199.56605                                  29052937.950 6 116984137.59306
E24  25099327.513 5 131897852.27505  25099327.271 7  98495152.44807  25099327.653 7 101064587.36007
E31  25507671.244 6 134043727.05506  25507678.631 7 100097609.25007  25507678.480 8 102708839.30208
E33  24253997.347 7 127455599.97707  24253997.772 7  95177900.71607  24253997.628 7  97660794.46507
G02  22590392.098 6 118713314.00706  22590389.681 2  92503856.20502
G05                                                                  20576509.160 7  84257369.77807
G12  24536735.786 6 128941583.96806  24536732.993 3 100473821.31703
G13  24856258.413 5 130620510.03405
G15                                                                  24939681.135 6 102123815.87306
G25  22125738.020 7 116271537.31707  22125740.877 5  90601211.25605  22125740.527 7  90601207.22207
G29  20613602.556 7 108325215.19907  20613602.886 7  84409258.75407  20613602.914 8  84409257.74908
J02  43752402.778 6 229920430.79306
R02  20656187.864 7 110225372.98407  20656192.496 7  85730867.70307
R03  22749749.514 7 121781312.86107  22749758.058 7  94718745.96607
R09  23350221.137 6 124688873.42706  23350225.916 6  96980260.31006
R15  22743704.233 6 121535480.60806  22743713.653 5  94527606.25705
R17  20017543.710 7 107117926.70707  20017547.365 6  83313959.09806
R18  20615569.819 7 110047319.20707  20615579.973 5  85592385.40605
> 2022 08 16 16 26 36.0000000  0 23
C27  25323675.733 5
C29  23072355.729 7 120143815.46707
C30  21872846.096 8 113897647.59708
C32  23140358.676 7 120497919.11607
E12  24228708.078 7 127322718.14207  24228707.313 7  95078650.44407  24228706.250 6  97558957.16906
E19  29052444.212 5 152671637.94305                                  29052450.351 6 116982174.82606
E24  25099416.226 5 131898316.96805  25099415.676 7  98495499.45007  25099416.101 7 101064943.42907
E31  25508211.707 6 134046564.69706  25508218.653 7 100099728.24307  25508218.526 8 102711013.57608
E33  24254276.338 7 127457065.48607  24254276.602 7  95178995.06707  24254276.414 7  97661917.36507
G02  22590828.072 6 118715601.79106  22590825.015 3  92505638.91603
G05                                                                  20576599.889 7  84257742.09007
G12  24537540.119 6 128945810.65406  24537537.540 3 100477114.78803
G13  24855756.274 5 130617870.77305
G15                                                                  24939076.854 6 102121338.80206
G25  22126361.435 7 116274812.91107  22126364.257 5  90603763.63905  22126363.889 7  90603759.57607
G29  20613490.093 7 108324624.26807  20613490.452 7  84408798.29107  20613490.548 8  84408797.29308
J02  43752420.579 6 229920524.07606
R02  20655951.997 7 110224114.08307  20655956.784 7  85729888.53507
R03  22749011.444 7 121777361.66507  22749020.441 7  94715672.80907
R09  23349825.019 6 124686757.75406  23349829.758 6  96978614.79706
R15  22744511.271 5 121539795.10605  22744520.655 5  94530961.93305
R17  20017793.157 7 107119261.46107  20017796.801 6  83314997.21406
R18  20615312.236 7 110045944.31307  20615322.714 6  85591316.07306
> 2022 08 16 16 26 37.0000000  0 23
C27  25324215.507 5
C29  23072051.692 7 120142231.45107
C30  21873043.393 8 113898674.95708
C32  23140293.784 7 120497581.33207
E12  24228567.155 7 127321977.15807  24228566.218 7  95078097.10807  24228565.478 6  97558389.41506
E19                                                                  29051963.230 5 116980211.85505
E24  25099504.589 6 131898781.84806  25099504.261 7  98495846.59007  25099504.549 7 101065299.62207
E31  25508752.332 6 134049402.23306  25508758.732 7 100101847.18307  25508758.515 8 102713187.79808
E33  24254555.172 7 127458530.73907  24254555.253 7  95180089.27607  24254555.155 7  97663040.11507
G02  22591263.370 6 118717889.42506  22591260.337 3  92507421.48703
G05                                                                  20576691.023 7  84258114.65607
G12  24538344.341 6 128950036.97506  24538341.972 3 100480408.02503
G13  24855254.301 5 130615231.27105  24855281.950 1 101778203.44401
G15                                                                  24938472.442 6 102118861.37106
G25  22126984.854 7 116278088.47907  22126987.583 5  90606315.99405  22126987.202 7  90606311.96407
G29  20613377.632 7 108324033.38607  20613378.026 7  84408337.86907  20613378.112 8  84408336.85708
J02  43752438.505 6 229920617.02006
R02  20655716.024 7 110222855.65807  20655721.194 7  85728909.79207
R03  22748273.388 7 121773410.25207  22748282.571 7  94712599.54907
R09  23349428.756 6 124684642.38406  23349432.955 6  96976969.48306
R15  22745319.806 5 121544109.39205  22745327.591 5  94534317.56005
R17  20018042.687 7 107120596.17207  20018046.577 6  83316035.31206
R18  20615054.484 7 110044569.28707  20615064.111 6  85590246.63106
> 2022 08 16 16 26 38.0000000  0 24
C20  24415720.026 8 127139039.97608
C27  25324755.344 5
C29  23071747.528 7 120140647.46107
C30  21873240.690 8 113899702.49308
C32  23140228.973 7 120497244.08307
E12  24228426.229 7 127321236.22507  24228425.238 6  95077543.83606  24228424.592 6  97557821.69706
E19  29051466.022 4                                                  29051475.977 6 116978248.73506
E24  25099593.143 5 131899247.14505  25099592.896 6  98496194.05906  25099593.057 7 101065656.13707
E31  25509292.425 5 134052239.79305  25509298.806 7 100103966.32607  25509298.600 8 102715362.22008
E33  24254833.978 7 127459996.05907  24254834.015 7  95181183.48607  24254833.949 7  97664162.87907
G02  22591698.831 6 118720177.08006  22591695.698 3  92509204.06403
G05  20576776.363 5 108131832.37405  20576786.083 2  84258501.63412  20576782.247 7  84258487.70607
G12  24539147.945 6 128954263.19006  24539146.368 3 100483701.17503
G13  24854752.626 5 130612591.76405  24854779.715 1 101776146.68201
G15  24937846.320 5 131049373.44905  24937862.535 1 102116372.79201  24937868.062 6 102116383.84406
G25  22127608.078 7 116281364.25907  22127610.959 5  90608868.53505  22127610.631 7  90608864.65007
G29  20613265.221 7 108323442.82007  20613265.659 7  84407877.68507  20613265.706 8  84407876.68808
J02  43752456.187 6 229920709.79706
R02  20655480.309 7 110221598.01507  20655485.689 7  85727931.63907
R03  22747535.036 7 121769459.05507  22747544.531 7  94709526.36007
R09  23349032.667 6 124682527.64506  23349036.468 6  96975324.69706
R15  22746127.401 5 121548423.85705  22746134.595 5  94537673.19105
R17  20018292.245 7 107121931.12007  20018296.364 6  83317073.62006
R18  20614796.690 7 110043194.37807  20614806.408 5  85589177.22705
> 2022 08 16 16 26 39.0000000  0 24
C20  24415166.760 8 127136149.12908
C27  25325298.047 4
C29  23071443.448 7 120139063.53307
C30  21873438.024 8 113900730.15208
C32  23140164.307 7 120496907.22407
E12  24228285.369 7 127320495.35807  24228284.287 7  95076990.59607  24228283.665 6  97557254.03206
E19  29050978.137 4                                                  29050988.337 6 116976285.56706
E24  25099681.589 5 131899712.75505  25099681.534 7  98496541.75507  25099681.644 7 101066012.91707
E31  25509833.190 6 134055077.74606  25509838.760 7 100106085.48507  25509838.647 7 102717536.66107
E33  24255112.760 7 127461461.36907  24255112.814 7  95182277.71707  24255112.759 7  97665285.64907
G02  22592134.442 5 118722464.65805  22592131.065 3  92510986.57703
G05  20576867.714 4 108132311.70804  20576877.000 3  84258875.13603  20576873.543 7  84258861.15307
G12  24539951.961 6 128958489.39606  24539950.763 3 100486994.32803
G13  24854251.351 5 130609952.20205  24854277.485 1 101774090.04801
G15  24937241.819 6 131046193.77106  24937257.453 2 102113895.08702  24937263.419 6 102113906.13906
G25  22128231.509 7 116284640.38807  22128234.406 5  90611421.40105  22128234.144 7  90611417.41507
G29  20613152.782 7 108322852.54607  20613153.336 7  84407417.72907  20613153.352 8  84407416.73008
J02  43752474.032 6 229920802.50206
R02  20655244.652 7 110220341.06107  20655249.912 7  85726953.99407
R03  22746796.794 7 121765507.87607  22746806.976 7  94706453.22307
R09  23348637.642 6 124680413.45206  23348640.536 6  96973680.30406
R15  22746934.091 6 121552738.37506  22746941.921 6  94541028.95006
R17  20018541.782 7 107123266.21507  20018546.202 6  83318112.02406
R18  20614539.004 7 110041819.62007  20614548.512 5  85588107.98805
> 2022 08 16 16 26 40.0000000  0 24
C20  24414613.206 8 127133257.77808
C27  25325838.340 4
C29  23071139.279 7 120137478.98407
C30  21873635.274 8 113901757.39208
C32  23140099.541 7 120496570.24907
E12  24228144.378 7 127319753.89607  24228143.237 6  95076436.94106  24228142.510 6  97556685.90806
E19  29050490.422 4                                                  29050500.591 6 116974321.88506
E24  25099769.931 5 131900178.11305  25099769.992 6  98496889.28606  25099770.183 7 101066369.51407
E31  25510373.527 6 134057915.16606  25510378.606 7 100108204.36407  25510378.658 7 102719710.81407
E33  24255391.391 7 127462926.09407  24255391.570 7  95183371.51307  24255391.553 7  97666407.99907
G02  22592569.252 5 118724751.71205  22592566.323 3  92512768.70303
G05  20576957.947 5 108132790.90805  20576967.863 3  84259248.56903  20576964.867 6  84259234.57706
G12  24540756.159 6 128962714.94406  24540755.119 3 100490286.96203
G13  24853748.853 5 130607312.07705  24853775.008 1 101772032.85701
G15  24936637.699 6 131043013.33806  24936652.259 2 102111416.83902  24936658.113 6 102111427.89906
G25  22128854.981 7 116287916.16807  22128857.759 5  90613973.96105  22128857.628 7  90613969.99507
G29  20613040.423 8 108322262.02008  20613040.969 7  84406957.58007  20613040.960 8  84406956.56008
J02  43752491.507 6 229920894.42506
R02  20655008.901 7 110219084.22507  20655014.206 7  85725976.48007
R03  22746058.703 7 121761556.20607  22746068.849 7  94703379.67507
R09  23348241.705 6 124678299.20406  23348244.745 6  96972035.87406
R15  22747741.294 5 121557052.53005  22747749.660 5  94544384.30605
R17  20018791.407 7 107124600.89907  20018795.725 6  83319150.13606
R18  20614281.279 7 110040444.33907  20614290.068 5  85587038.26905
> 2022 08 16 16 26 41.0000000  0 24
C20  24414059.179 8 127130366.19808
C27  25326379.638 4
C29  23070835.244 7 120135894.29107
C30  21873832.483 8 113902784.45608
C32  23140034.907 7 120496233.42507
E12  24228003.213 7 127319012.29607  24228002.138 7  95075883.11607  24228001.386 7  97556117.66707
E19  29050002.447 5                                                  29050012.731 6 116972357.80306
E24  25099857.767 5 131900643.70405  25099858.416 7  98497236.89107  25099858.746 8 101066726.17508
E31  25510913.937 6 134060752.55006  25510918.488 7 100110323.10707  25510918.556 8 102721884.82508
E33  24255670.054 7 127464390.58307  24255670.278 7  95184465.05407  24255670.317 7  97667530.07307
G02  22593003.687 5 118727038.43705  22593001.470 3  92514550.55503
G05  20577049.101 5 108133270.39905  20577058.713 3  84259622.21203  20577055.879 6  84259608.20406
G12  24541560.269 6 128966940.10206  24541559.376 3 100493579.29203  24541557.506 6 100493767.34206
G13  24853246.170 5 130604671.61605
G15  24936034.208 6 131039832.39506  24936046.994 2 102108938.17302  24936053.073 6 102108949.20606
G25  22129478.660 7 116291191.97107  22129481.094 5  90616526.52705  22129481.098 7  90616522.50207
G29  20612928.091 7 108321671.43307  20612928.588 7  84406497.38507  20612928.507 8  84406496.39908
J02  43752508.661 6 229920985.95006
R02  20654773.381 7 110217827.72707  20654778.463 7  85724999.17507
R03  22745320.606 7 121757604.32107  22745330.774 7  94700306.00607
R09  23347846.053 5 124676185.25405  23347849.238 6  96970391.69006
R15  22748549.485 6 121561366.36206  22748557.139 6  94547739.55006
R17  20019040.796 7 107125935.46307  20019045.577 6  83320188.11906
R18  20614023.879 7                  20614030.681 4
> 2022 08 16 16 26 42.0000000  0 24
C20  24413504.651 8 127127474.23708
C27  25326918.997 5
C29  23070531.171 7 120134309.12307
C30  21874029.616 8 113903811.22208
C32  23139970.229 7 120495896.58707
E12  24227862.038 7 127318270.21207  24227860.971 7  95075328.96107  24227860.311 7  97555549.05307
E19  29049515.018 5                                                  29049524.751 6 116970393.35706
E24  25099946.249 5 131901109.04105  25099946.951 7  98497584.40107  25099947.295 7 101067082.75607
E31  25511454.036 6 134063589.54206  25511458.299 7 100112441.61907  25511458.413 8 102724058.61208
E33  24255948.536 7 127465854.56207  24255948.950 7  95185558.28307  24255949.009 7  97668651.83107
G02  22593438.780 5 118729324.72905  22593436.573 3  92516332.05803
G05  20577141.044 5 108133749.94805  20577149.684 3  84259995.88303  20577146.904 6  84259981.90106
G12  24542364.307 6 128971164.67906  24542363.485 3 100496871.15503  24542360.917 6 100497059.22406
G13  24852743.546 5 130602030.62505
G15  24935430.732 6 131036650.81806  24935441.630 2 102106459.02302  24935447.987 6 102106470.06706
G25  22130102.060 7 116294467.50307  22130104.407 5  90619078.87305  22130104.312 7  90619074.86107
G29  20612815.721 7 108321080.71907  20612816.194 7  84406037.09507  20612816.049 7  84406036.10507
J02  43752526.137 7 229921076.86907
R02  20654537.827 7 110216571.45207  20654542.984 7  85724022.07407
R03  22744582.540 7 121753652.00307  22744592.343 7  94697231.99607
R09  23347450.337 6 124674071.34906  23347453.435 6  96968747.57306
R15  22749357.116 6 121565679.83506  22749364.418 6  94551094.47806
R17  20019290.228 7 107127269.72007  20019295.102 6  83321225.87906
R18  20613766.519 7
> 2022 08 16 16 26 43.0000000  0 24
C20  24412949.631 8 127124581.94508
C27  25327458.341 4
C29  23070226.771 7 120132723.54507
C30  21874226.729 8 113904837.73008
C32  23139905.477 7 120495559.75707
E12  24227720.718 7 127317527.74007  24227719.644 7  95074774.51307  24227719.151 7  97554980.14707
E19  29049026.815 5                                                  29049036.604 6 116968428.49106
E24  25100035.164 5 131901574.37005  25100035.480 7  98497931.86407  25100035.831 7 101067439.27907
E31  25511993.964 7 134066426.21807  25511998.104 7 100114559.93807  25511998.231 8 102726232.18508
E33  24256227.013 7 127467318.16107  24256227.465 7  95186651.22907  24256227.574 7  97669773.27607
G02  22593873.908 5 118731610.50305  22593871.617 3  92518113.18303
G05  20577233.175 5 108134229.72405  20577240.654 3  84260369.75303  20577238.058 6  84260355.71206
G12  24543168.381 6 128975388.77306  24543167.546 3 100500162.65003  24543165.292 6 100500350.73006
G13  24852240.475 5 130599389.28605
G15  24934827.085 6 131033468.60506  24934836.177 2 102103979.39202  24934842.946 6 102103990.46406
G25  22130725.232 8 116297742.86808  22130727.733 5  90621631.09705  22130727.572 7  90621627.08807
G29  20612703.194 7 108320489.88607  20612703.777 6  84405576.71106  20612703.726 8  84405575.72008
J02  43752543.410 6 229921167.24206
R02  20654302.422 7 110215315.42007  20654307.657 7  85723045.17007
R03  22743844.440 7 121749699.34907  22743853.891 7  94694157.68907
R09  23347053.880 6 124671957.55706  23347057.042 6  96967103.52806
R15  22750164.547 6 121569993.03506  22750171.458 6  94554449.19806
R17  20019539.636 7 107128603.72407  20019544.520 6  83322263.44806
R18  20613509.050 7 110036317.03307
> 2022 08 16 16 26 44.0000000  0 24
C20  24412394.588 8 127121689.80808
C27  25328000.226 4
C29  23069922.460 6 120131138.09106
C30  21874423.882 8 113905864.50308
C32  23139840.808 7 120495223.46607
E12  24227579.437 7 127316785.41607  24227578.508 7  95074220.20007  24227577.880 6  97554411.33606
E19  29048538.187 4                                                  29048548.390 6 116966463.68706
E24  25100123.255 5 131902040.02305  25100124.131 7  98498279.65807  25100124.449 8 101067796.14408
E31  25512533.772 7 134069263.21707  25512537.930 7 100116678.43107  25512538.088 8 102728405.95008
E33  24256505.569 7 127468781.83907  24256506.011 7  95187744.27907  24256506.131 8  97670894.81808
G02  22594309.286 6 118733896.45106  22594306.706 3  92519894.46903
G05  20577325.747 5 108134710.09705  20577331.858 3  84260744.05403  20577329.522 6  84260730.04706
G12  24543971.972 6 128979612.92006  24543971.539 3 100503454.18403  24543970.186 6 100503642.20006
G13  24851737.612 6 130596748.00806
G15  24934222.674 6 131030286.35206  24934230.688 2 102101499.74902  24934237.717 6 102101510.82706
G25  22131348.609 7 116301018.62707  22131351.113 5  90624183.62605  22131350.865 7  90624179.58607
G29  20612590.731 7 108319899.48407  20612591.446 6  84405116.66006  20612591.369 8  84405115.65408
J02  43752560.733 6 229921257.63906
R02  20654067.155 7 110214060.18907  20654072.505 7  85722068.88707
R03  22743106.260 7 121745746.85307  22743115.602 7  94691083.50207
R09  23346658.093 6 124669844.49006  23346661.697 6  96965459.97906
R15  22750971.799 6 121574306.46506  22750978.653 6  94557804.12206
R17  20019789.123 7 107129938.05307  20019793.929 6  83323301.25706
R18  20613251.390 7                  20613262.286 4
> 2022 08 16 16 26 45.0000000  0 24
C20  24411838.936 8 127118797.61908
C27  25328540.255 4
C29  23069618.011 7 120129552.59307
C30  21874620.987 8 113906891.26408
C32  23139776.276 7 120494887.48907
E12  24227438.031 7 127316043.02407  24227437.254 7  95073665.81307  24227436.660 7  97553842.52207
E19  29048050.861 4                                                  29048060.263 6 116964498.62706
E24  25100212.317 5 131902506.08305  25100212.812 7  98498627.63707  25100213.128 8 101068153.20508
E31  25513073.382 6 134072100.20106  25513077.857 7 100118796.97507  25513077.977 8 102730579.75408
E33  24256784.045 7 127470245.40807  24256784.502 7  95188837.18407  24256784.697 8  97672016.24908
G02  22594744.580 6 118736182.23406  22594741.745 3  92521675.61303
G05  20577418.052 5 108135190.89505  20577423.186 3  84261118.69403  20577420.930 6  84261104.66906
G12  24544774.704 6 128983836.78706  24544775.461 3 100506745.46603  24544775.014 5 100506933.58705
G13  24851235.233 6 130594106.54906
G15  24933618.097 6 131027103.77306  24933625.159 2 102099019.83002  24933632.142 6 102099030.89406
G25  22131971.919 8 116304294.46208  22131974.484 5  90626736.20905  22131974.221 7  90626732.21607
G29  20612478.428 7 108319309.20107  20612479.119 6  84404656.69706  20612479.163 8  84404655.69308
J02  43752577.847 6 229921347.71806
R02  20653832.036 7 110212805.49707  20653837.620 7  85721093.03007
R03  22742367.890 7 121741794.27507  22742377.381 7  94688009.28307
R09  23346262.620 6 124667731.77206  23346266.081 6  96963816.79406
R15  22751778.393 6 121578619.90306  22751784.968 6  94561159.00806
R17  20020038.735 7 107131272.39707  20020043.813 6  83324339.07606
R18  20612993.569 7                  20613004.237 3
> 2022 08 16 16 26 46.0000000  0 24
C20  24411282.922 8 127115905.26608
C27  25329081.066 3
C29  23069313.413 7 120127966.86407
C30  21874818.122 8 113907917.93508
C32  23139711.901 7 120494551.72007
E12  24227296.508 7 127315300.43907  24227295.987 7  95073111.28607  24227295.323 6  97553273.52606
E19  29047563.208 4                                                  29047572.010 6 116962533.32006
E24  25100300.949 5 131902972.26005  25100301.542 7  98498975.71207  25100301.783 8 101068510.35608
E31  25513613.083 6 134074937.08106  25513617.704 7 100120915.42107  25513617.843 8 102732753.46808
E33  24257062.398 7 127471708.74707  24257062.988 7  95189929.93207  24257063.127 8  97673137.50408
G02  22595179.747 6 118738467.79806  22595176.754 3  92523456.57803
G05  20577509.859 5 108135672.02905  20577514.492 3  84261493.59903  20577512.477 6  84261479.58306
G12  24545578.245 6 128988060.36506  24545579.284 3 100510036.55703  24545580.222 5 100510224.67005
G13  24850733.235 6 130591464.83306
G15  24933012.290 6 131023920.77906  24933019.562 2 102096539.58602  24933026.106 6 102096550.63406
G25  22132595.214 8 116307570.33908  22132597.864 5  90629288.83505  22132597.530 7  90629284.83807
G29  20612366.223 7 108318718.98107  20612366.809 6  84404196.78506  20612366.845 8  84404195.78208
J02  43752595.079 6 229921437.42806
R02  20653597.068 7 110211551.29107  20653602.394 7  85720117.52607
R03  22741629.584 7 121737841.54007  22741639.050 7  94684934.93707
R09  23345866.764 6 124665619.40406  23345869.822 6  96962173.81606
R15  22752585.258 6 121582933.14406  22752592.388 6  94564513.75106
R17  20020288.221 7 107132606.70507  20020293.268 6  83325376.86706
R18  20612735.678 7                  20612750.969 4
> 2022 08 16 16 26 47.0000000  0 24
C20  24410726.402 8 127113012.30008
C27  25329620.948 3
C29  23069008.893 7 120126380.49707
C30  21875015.221 8 113908944.08408
C32  23139647.423 7 120494215.72107
E12  24227155.086 7 127314557.22407  24227154.566 7  95072556.28707  24227153.856 7  97552704.04907
E19  29047075.609 4                  29047082.178 5 113986989.64415  29047083.629 6 116960567.40206
E24  25100390.007 5 131903437.99805  25100390.219 7  98499323.54507  25100390.378 8 101068867.27208
E31  25514152.782 6 134077773.43006  25514157.429 7 100123033.48607  25514157.611 8 102734926.77908
E33  24257340.793 7 127473171.41407  24257341.341 7  95191022.18207  24257341.448 8  97674258.24908
G02  22595614.714 6 118740752.61506  22595611.597 3  92525236.95103
G05  20577602.116 5 108136152.99905  20577605.865 3  84261868.38203  20577603.953 6  84261854.39706
G12  24546381.908 6 128992283.14506  24546382.924 3 100513327.03903  24546385.091 5 100513515.15905
G13  24850230.696 6 130588822.42706
G15  24932406.513 6 131020736.93506  24932413.787 3 102094058.67703  24932419.869 6 102094069.71906
G25  22133218.384 8 116310845.78408  22133221.168 5  90631841.12505  22133220.784 7  90631837.12407
G29  20612253.986 7 108318128.37207  20612254.428 6  84403736.57206  20612254.457 8  84403735.57108
J02  43752611.755 6 229921526.35106
R02  20653361.929 7 110210297.13307  20653367.471 7  85719142.07307
R03  22740891.408 7 121733888.16607  22740900.749 7  94681860.08907
R09  23345470.851 6 124663506.87206  23345474.195 6  96960530.74506
R15  22753392.162 6 121587245.79506  22753399.384 6  94567868.03706
R17  20020537.608 7 107133940.48307  20020542.083 6  83326414.25406
R18  20612477.688 7 110030812.58807  20612495.076 4
> 2022 08 16 16 26 48.0000000  0 24
C20  24410169.371 8 127110118.37608
C27  25330161.008 3
C29  23068703.965 6 120124793.10906
C30  21875212.138 8 113909969.33208
C32  23139582.805 7 120493879.12707
E12  24227013.464 7 127313812.99707  24227012.972 7  95072000.54407  24227012.185 7  97552133.80707
E19  29046586.521 5                  29046593.595 5 113985072.84505  29046595.043 6 116958600.60606
E24  25100478.713 5 131903903.12305  25100478.822 7  98499670.88507  25100478.839 8 101069223.66208
E31  25514692.407 6 134080608.89906  25514697.024 7 100125150.86907  25514697.206 8 102737099.41008
E33  24257618.898 7 127474633.04407  24257619.526 7  95192113.65607  24257619.576 8  97675378.20508
G02  22596049.279 6 118743036.47606  22596046.238 3  92527016.58003
G05  20577694.621 5 108136633.54005  20577697.136 3  84262242.82403  20577695.177 6  84262228.78106
G12  24547185.454 6 128996504.83306  24547186.475 3 100516616.66903  24547189.923 6 100516804.78506
G13  24849728.269 6 130586178.95206
G15  24931800.793 6 131017551.85406  24931807.811 3 102091576.79803  24931813.335 6 102091587.86306
G25  22133841.466 8 116314120.43908  22133844.311 5  90634392.80105  22133843.954 7  90634388.81007
G29  20612141.530 7 108317537.01907  20612141.909 6  84403275.78006  20612141.859 8  84403274.77908
J02  43752628.460 6 229921614.09006
R02  20653126.844 7 110209042.64907  20653132.267 7  85718166.36607
R03  22740152.870 7 121729933.81407  22740162.513 7  94678784.48707
R09  23345074.843 6 124661393.83006  23345077.871 6  96958887.28906
R15  22754199.071 6 121591557.46806  22754206.055 6  94571221.53706
R17  20020786.947 7 107135273.38807  20020790.220 6  83327450.92706
R18  20612219.561 7 110029435.03407  20612236.182 4
> 2022 08 16 16 26 49.0000000  0 24
C20  24409611.859 8 127107224.30408
C27  25330701.220 3
C29  23068399.147 6 120123205.55106
C30  21875408.996 8 113910994.51308
C32  23139518.298 7 120493542.75207
E12  24226871.795 7 127313068.59607  24226871.393 7  95071444.64607  24226870.472 7  97551563.40707
E19  29046098.117 5                  29046104.739 5 113983155.80205  29046106.502 6 116956633.53706
E24  25100567.628 5 131904368.36705  25100567.360 7  98500018.31607  25100567.318 8 101069580.15908
E31  25515231.899 6 134083444.28506  25515236.579 7 100127268.20707  25515236.789 8 102739271.97708
E33  24257896.973 7 127476094.44507  24257897.601 7  95193204.97307  24257897.641 8  97676497.98708
G02  22596483.211 6 118745320.00406  22596480.773 3  92528795.96203
G05  20577786.449 5 108137114.35405  20577788.518 3  84262617.49503  20577786.585 6  84262603.48206
G12  24547988.879 6 129000726.22006  24547989.967 3 100519906.05603  24547995.077 6 100520094.16906
G13  24849225.113 6 130583535.25406
G15  24931194.701 6 131014366.36606  24931201.763 3 102089094.61703  24931206.889 6 102089105.67606
G25  22134464.574 8 116317395.13508  22134467.440 5  90636944.51305  22134467.014 7  90636940.50807
G29  20612029.103 7 108316945.73407  20612029.403 6  84402815.03906  20612029.385 8  84402814.04108
J02  43752645.090 6 229921701.46306
R02  20652891.897 7 110207788.66307  20652897.239 7  85717191.05407
R03  22739414.114 7 121725979.31907  22739424.011 7  94675708.77807
R09  23344678.721 6 124659281.17306  23344682.396 6  96957244.11106
R15  22755005.731 6 121595869.04706  22755012.720 6  94574574.99306
R17  20021036.220 7 107136606.24607  20021039.169 6  83328487.58906
R18  20611961.499 7 110028057.36507  20611977.432 4
> 2022 08 16 16 26 50.0000000  0 24
C20  24409053.885 7 127104330.35707
C27  25331239.246 3
C29  23068094.195 6 120121618.06006
C30  21875605.938 8 113912019.87408
C32  23139453.744 7 120493206.87507
E12  24226730.138 7 127312324.30607  24226729.765 7  95070888.85007  24226728.862 7  97550993.11507
E19  29045610.187 4                  29045616.398 5 113981238.68505  29045617.810 6 116954666.41106
E24  25100655.990 5 131904834.04705  25100655.952 7  98500366.03907  25100655.905 8 101069936.95608
E31  25515771.426 6 134086279.87306  25515776.221 7 100129385.68907  25515776.408 8 102741444.70508
E33  24258174.910 7 127477555.92807  24258175.700 7  95194296.32407  24258175.728 8  97677617.81408
G02  22596917.503 6 118747603.64806  22596915.343 3  92530575.42203
G05  20577877.924 5 108137595.78205  20577879.989 3  84262992.62603  20577878.053 6  84262978.62306
G12  24548792.139 6 129004947.54506  24548793.388 3 100523195.39803  24548799.750 6 100523383.52006
G13  24848721.944 6 130580891.56606  24848751.105 1 101751481.75511
G15  24930588.382 6 131011180.77006  24930595.697 3 102086612.33203  24930600.556 6 102086623.39406
G25  22135087.619 8 116320670.12608  22135090.619 5  90639496.45405  22135090.373 7  90639492.45607
G29  20611916.705 7 108316354.79707  20611916.955 6  84402354.57006  20611917.041 8  84402353.57508
J02  43752661.699 6 229921788.77106
R02  20652656.818 7 110206535.40107  20652662.315 7  85716216.29607
R03  22738675.468 7 121722024.94807  22738685.579 7  94672633.16507
R09  23344283.306 6 124657169.07306  23344287.662 6  96955601.35306
R15  22755812.744 6 121600180.82806  22755820.030 6  94577928.60206
R17  20021285.459 7 107137939.34407  20021288.647 5  83329524.45005
R18  20611703.596 7                  20611720.018 4
> 2022 08 16 16 26 51.0000000  0 23
C27  25331777.169 3
C29  23067789.412 6 120120030.52106
C30  21875802.878 8 113913045.31308
C32  23139389.310 7 120492871.35207
E12  24226588.501 7 127311579.96507  24226588.168 7  95070333.01707  24226587.240 7  97550422.77807
E19  29045121.890 5                  29045127.741 5 113979321.42005  29045129.277 6 116952699.14606
E24  25100745.036 5 131905299.99105  25100744.606 7  98500713.99707  25100744.537 8 101070293.98208
E31  25516310.991 6 134089115.51906  25516315.818 7 100131503.22307  25516316.005 8 102743617.48108
E33  24258453.089 7 127479017.30607  24258453.822 7  95195387.62607  24258453.834 8  97678737.57908
G02  22597352.026 6 118749887.19906  22597349.891 3  92532354.81103
G05  20577969.808 5 108138077.68305  20577971.416 3  84263368.13303  20577969.841 6  84263354.14706
G12  24549595.587 6 129009168.75206  24549596.800 3 100526484.64903  24549604.092 6 100526672.74906
G13  24848218.533 6 130578247.77306  24848247.940 1 101749421.64901
G15  24929982.058 6 131007994.89306  24929989.618 3 102084129.82703  24929994.265 6 102084140.88206
G25  22135710.782 8 116323945.28708  22135713.852 5  90642048.52805  22135713.507 7  90642044.52207
G29  20611804.278 7 108315764.07707  20611804.543 6  84401894.26806  20611804.727 8  84401893.25908
J02  43752678.229 6 229921875.86306
R02  20652421.926 7 110205282.76307  20652427.707 7  85715242.02107
R03  22737936.416 7 121718070.58207  22737946.905 7  94669557.54707
R09  23343888.007 6 124655057.43606  23343892.028 6  96953958.99006
R15  22756619.876 6 121604492.63106  22756627.160 6  94581282.19806
R17  20021534.610 7 107139272.54607  20021537.867 5  83330561.37405
R18  20611445.333 7                  20611462.744 4
> 2022 08 16 16 26 52.0000000  0 23
C27  25332316.808 3
C29  23067484.444 6 120118442.28406
C30  21875999.696 8 113914070.16008
C32  23139324.869 7 120492535.54107
E12  24226446.758 7 127310834.93007  24226446.378 7  95069776.66007  24226445.494 7  97549851.90107
E19  29044633.964 5                  29044639.101 5 113977403.51805  29044640.644 6 116950731.22806
E24  25100833.070 5 131905765.60205  25100833.186 7  98501061.67507  25100833.131 8 101070650.73508
E31  25516850.500 6 134091950.58106  25516855.342 7 100133620.32807  25516855.496 8 102745789.81108
E33  24258730.958 7 127480477.97307  24258731.755 7  95196478.38307  24258731.819 8  97679856.79108
G02  22597786.191 6 118752169.97806  22597784.340 3  92534133.60103
G05  20578061.267 5 108138559.44805  20578062.963 3  84263743.53203  20578061.483 6  84263729.51006
G12  24550399.035 6 129013389.10606  24550400.015 3 100529773.23003  24550408.487 6 100529961.32506
G13  24847714.628 6 130575603.23606  24847744.560 1 101747360.92601
G15  24929375.183 6 131004808.09006  24929383.364 3 102081646.61403  24929387.717 6 102081657.68006
G25  22136333.756 8 116327219.97008  22136336.986 5  90644600.23105  22136336.613 7  90644596.23807
G29  20611691.629 7 108315172.90707  20611692.046 6  84401433.61606  20611692.192 8  84401432.61308
J02  43752694.545 6 229921962.07706
R02  20652187.004 7 110204030.08007  20652192.872 7  85714267.71007
R03  22737197.629 7 121714115.52607  22737208.160 7  94666481.39707
R09  23343492.356 6 124652945.62606  23343496.747 6  96952316.47206
R15  22757426.453 6 121608803.77306  22757434.072 6  94584635.30406
R17  20021783.441 7 107140605.15607  20021787.114 6  83331597.86306
R18  20611187.240 7                  20611203.555 4
> 2022 08 16 16 26 53.0000000  0 23
C27  25332855.970 4
C29  23067179.342 7 120116853.53207
C30  21876196.487 8 113915094.60508
C32  23139260.465 7 120492199.63807
E12  24226304.983 7 127310089.40607  24226304.510 7  95069219.92907  24226303.601 7  97549280.66907
E19  29044145.323 5                  29044150.095 5 113975485.15105  29044152.008 6 116948762.80206
E24  25100921.681 5 131906230.99005  25100921.790 7  98501409.20807  25100921.700 8 101071007.33708
E31  25517389.947 6 134094785.23806  25517394.710 7 100135737.11707  25517394.927 8 102747961.82208
E33  24259008.808 7 127481938.10707  24259009.578 7  95197568.73307  24259009.702 8  97680975.58408
G02  22598220.578 6 118754452.19406  22598218.615 3  92535911.96003
G05  20578153.109 5 108139041.17305  20578154.498 3  84264118.89303  20578153.346 6  84264104.90306
G12  24551202.773 6 129017608.85406  24551203.163 3 100533061.35303  24551212.416 6 100533249.43506
G13  24847210.828 6 130572958.16006  24847241.400 1 101745299.81201
G15  24928768.286 6 131001620.59306  24928776.940 3 102079162.85203  24928781.218 6 102079173.90906
G25  22136956.687 8 116330494.35308  22136960.075 5  90647151.70705  22136959.742 7  90647147.71007
G29  20611579.100 7 108314581.49107  20611579.500 6  84400972.77306  20611579.601 7  84400971.77107
J02  43752710.703 6 229922047.63106
R02  20651952.315 7 110202777.53407  20651958.211 7  85713293.51407
R03  22736458.626 7 121710159.97707  22736469.074 7  94663404.86007
R09  23343097.065 6 124650833.79606  23343100.724 6  96950673.92706
R15  22758233.051 6 121613114.46706  22758241.288 6  94587988.07106
R17  20022032.227 7 107141937.38507  20022036.023 6  83332634.02206
R18  20610928.778 7                  20610946.164 4
> 2022 08 16 16 26 54.0000000  0 23
C27  25333395.453 3
C29  23066874.259 6 120115264.02606
C30  21876393.181 8 113916118.39108
C32  23139195.823 7 120491863.34907
E12  24226163.022 7 127309343.09707  24226162.481 7  95068662.62407  24226161.539 7  97548708.81907
E19  29043656.266 5                  29043660.778 5 113973566.08305  29043663.032 6 116946793.66606
E24  25101010.326 5 131906695.92905  25101010.259 7  98501756.39407  25101010.174 8 101071363.57708
E31  25517929.180 7 134097619.23007  25517934.000 7 100137853.41707  25517934.197 8 102750133.32208
E33  24259286.601 7 127483397.43107  24259287.295 7  95198658.48207  24259287.413 8  97682093.76208
G02  22598654.502 6 118756733.63206  22598652.778 3  92537689.69203
G05  20578244.428 5 108139522.65005  20578246.032 3  84264494.07803  20578245.019 6  84264480.07406
G12  24552005.952 6 129021827.67806  24552006.083 3 100536348.73903  24552016.350 6 100536536.83906
G13  24846706.805 6 130570312.20406  24846737.998 1 101743238.05901
G15  24928161.555 6 130998432.07606  24928170.320 3 102076678.30303  24928174.457 6 102076689.35606
G25  22137579.518 8 116333768.18708  22137583.048 5  90649702.74805  22137582.616 7  90649698.74607
G29  20611466.370 7 108313989.55307  20611466.851 6  84400511.52406  20611466.972 8  84400510.51208
J02  43752726.685 6 229922132.21306
R02  20651717.584 7 110201524.85107  20651723.450 7  85712319.19607
R03  22735719.235 7 121706203.68507  22735729.936 7  94660327.75707
R09  23342701.178 6 124648721.66906  23342705.342 6  96949031.15906
R15  22759039.547 6 121617424.43906  22759048.679 6  94591340.28906
R17  20022280.759 7 107143268.96407  20022284.111 6  83333669.68706
R18  20610670.230 7                  20610686.931 4
> 2022 08 16 16 26 55.0000000  0 23
C27  25333935.996 3
C29  23066569.073 6 120113674.20906
C30  21876589.802 8 113917141.99808
C32  23139131.261 7 120491527.18207
E12  24226020.941 7 127308596.50707  24226020.346 7  95068105.10007  24226019.524 7  97548136.76107
E19  29043166.481 5                  29043171.729 5 113971646.68805  29043174.023 6 116944824.20306
E24  25101099.133 5 131907160.84305  25101098.742 7  98502103.60807  25101098.689 8 101071719.85108
E31  25518468.358 7 134100453.04007  25518473.224 7 100139969.55907  25518473.441 8 102752304.67608
E33  24259564.283 7 127484856.41707  24259564.903 7  95199747.99207  24259565.090 8  97683211.68908
G02  22599088.640 6 118759014.71206  22599086.919 3  92539467.15003
G05  20578335.818 5 108140004.35105  20578337.602 3  84264869.43303  20578336.651 6  84264855.44006
G12  24552808.510 6 129026046.08306  24552808.994 3 100539635.80103  24552820.330 6 100539823.92006
G13  24846202.733 6 130567665.90306  24846234.386 1 101741176.00901
G15  24927554.524 6 130995243.07206  24927563.534 3 102074193.37303  24927567.604 6 102074204.42006
G25  22138202.309 8 116337041.94408  22138205.999 5  90652253.72505  22138205.695 7  90652249.70407
G29  20611353.761 7 108313397.57107  20611354.192 6  84400050.23906  20611354.287 8  84400049.23208
J02  43752742.592 6 229922216.34506
R02  20651482.938 7 110200272.53107  20651488.948 7  85711345.16807
R03  22734979.909 7 121702247.16107  22734990.610 7  94657250.45907
R09  23342305.418 6 124646609.79406  23342310.146 6  96947388.60006
R15  22759846.265 6 121621734.17706  22759855.093 6  94594692.31806
R17  20022529.235 7 107144600.40107  20022532.927 6  83334705.25206
R18  20610411.960 7                  20610427.415 4
> 2022 08 16 16 26 56.0000000  0 23
C27  25334474.818 3
C29  23066263.904 6 120112084.69106
C30  21876786.448 8 113918166.01208
C32  23139066.721 7 120491191.73207
E12  24225878.922 7 127307850.23507  24225878.340 7  95067547.83307  24225877.496 7  97547564.94707
E19  29042676.878 5                  29042682.854 5 113969727.37905  29042684.986 6 116942854.83406
E24  25101187.631 5 131907626.45705  25101187.377 7  98502451.29207  25101187.278 8 101072076.60908
E31  25519007.659 7 134103287.27207  25519012.557 7 100142086.04007  25519012.744 8 102754476.36508
E33  24259841.909 7 127486315.69007  24259842.595 7  95200837.70707  24259842.781 8  97684329.83508
G02  22599522.874 6 118761296.03806  22599521.141 3  92541244.82603
G05  20578427.637 5 108140486.89505  20578429.256 3  84265245.45003  20578428.487 6  84265231.42906
G12  24553611.323 6 129030264.69706  24553611.950 3 100542923.02303  24553624.305 6 100543111.15506
G13  24845698.980 6 130565019.89106  24845731.078 1 101739114.19001
G15  24926947.720 6 130992054.12106  24926956.735 3 102071708.48203  24926960.527 6 102071719.55906
G25  22138825.213 8 116340316.21108  22138829.052 5  90654805.09405  22138828.710 7  90654801.09207
G29  20611241.236 7 108312806.16107  20611241.655 6  84399589.39906  20611241.789 8  84399588.39308
J02  43752758.817 6 229922300.60806
R02  20651248.575 7 110199021.19507  20651254.391 7  85710371.91207
R03  22734240.586 7 121698290.99407  22734251.101 7  94654173.44807
R09  23341909.932 6 124644498.75006  23341914.627 6  96945746.68006
R15  22760653.307 6 121626044.29406  22760661.540 6  94598044.59506
R17  20022777.677 7 107145932.27307  20022781.879 6  83335741.15906
R18  20610153.615 7                  20610170.847 4
> 2022 08 16 16 26 57.0000000  0 23
C27  25335014.257 3
C29  23065958.471 6 120110495.02006
C30  21876983.057 8 113919189.97008
C32  23139002.245 7 120490856.51107
E12  24225736.885 7 127307103.82607  24225736.366 7  95066990.43907  24225735.537 7  97546993.01307
E19  29042187.763 5                  29042193.421 5 113967807.88605  29042195.836 6 116940885.24606
E24  25101276.039 5 131908092.20305  25101276.018 7  98502799.09907  25101275.891 8 101072433.48108
E31  25519546.875 7 134106121.43907  25519551.900 7 100144202.46307  25519552.096 8 102756647.99908
E33  24260119.727 6 127487774.77006  24260120.217 7  95201927.26807  24260120.442 8  97685447.82108
G02  22599956.644 6 118763577.15906  22599955.246 3  92543022.33003
G05  20578520.247 5 108140969.74805  20578521.028 3  84265621.70103  20578520.444 6  84265607.71706
G12  24554413.805 6 129034483.01206  24554414.830 3 100546210.02703  24554428.149 6 100546398.13106
G13  24845195.160 6 130562373.63506  24845227.614 1 101737052.09201
G15  24926340.783 6 130988864.81606  24926349.878 3 102069223.32303  24926353.062 6 102069234.40106
G25  22139448.161 8 116343590.54608  22139452.128 5  90657356.52205  22139451.912 7  90657352.51207
G29  20611128.594 7 108312214.84407  20611129.122 6  84399128.63106  20611129.209 8  84399127.62208
J02  43752774.821 6 229922384.52506
R02  20651014.477 7 110197770.37507  20651020.216 7  85709399.04407
R03  22733501.403 7 121694334.66507  22733511.756 7  94651096.30307
R09  23341514.414 6 124642388.03306  23341519.423 6  96944105.00906
R15  22761459.885 6 121630354.31706  22761467.788 6  94601396.84106
R17  20023026.417 7 107147264.12907  20023030.673 6  83336777.04706
R18  20609895.382 7 110017028.79007  20609912.311 5
> 2022 08 16 16 26 58.0000000  0 24
C20  24404581.778 7 127081166.67307
C27  25335553.172 3
C29  23065652.934 6 120108904.75106
C30  21877179.553 8 113920213.40708
C32  23138937.850 7 120490521.08207
E12  24225594.750 7 127306356.79007  24225594.182 7  95066432.57607  24225593.377 7  97546420.60607
E19  29041698.729 5                  29041704.112 5 113965887.89905  29041706.492 6 116938915.08706
E24  25101364.752 5 131908557.69405  25101364.593 7  98503146.70207  25101364.487 7 101072790.15107
E31  25520085.957 6 134108955.11906  25520091.075 7 100146318.51307  25520091.310 8 102758819.25808
E33  24260397.303 7 127489233.19207  24260397.709 7  95203016.34907  24260397.937 8  97686565.31508
G02  22600390.318 6 118765857.61506  22600389.230 3  92544799.31003
G05  20578611.966 5 108141452.55905  20578612.830 3  84265997.91903  20578612.407 6  84265983.90606
G12  24555216.756 6 129038700.56106  24555217.540 3 100549496.43303  24555231.563 6 100549684.52706
G13  24844691.065 6 130559726.69106  24844724.078 1 101734989.51401
G15  24925734.127 6 130985674.68706  24925742.877 3 102066737.51003  24925745.418 6 102066748.52806
G25  22140071.041 8 116346864.46508  22140075.092 5  90659907.62505  22140074.923 7  90659903.63107
G29  20611015.976 7 108311623.13007  20611016.509 6  84398667.55806  20611016.626 7  84398666.55707
J02  43752790.447 6 229922467.66906
R02  20650780.044 7 110196519.56707  20650785.742 7  85708426.23007
R03  22732762.213 7 121690377.70607  22732772.089 7  94648018.67007
R09  23341119.283 6 124640277.17306  23341124.499 6  96942463.24806
R15  22762266.612 6 121634663.77306  22762274.021 6  94604748.64306
R17  20023275.250 7 107148595.47207  20023279.624 6  83337812.54206
R18  20609636.999 7 110015649.05607  20609653.311 5
> 2022 08 16 16 26 59.0000000  0 24
C20  24404025.673 7 127078270.00407
C27  25336091.426 3
C29  23065347.319 6 120107314.16906
C30  21877376.088 8 113921236.69808
C32  23138873.493 7 120490185.78907
E12  24225452.634 7 127305609.48707  24225451.962 7  95065874.52707  24225451.176 7  97545848.00407
E19  29041211.201 5                  29041214.672 5 113963967.45205  29041217.046 6 116936944.60906
E24  25101453.455 5 131909023.22505  25101453.133 7  98503494.32407  25101453.148 7 101073146.84607
E31  25520624.971 6 134111788.61006  25520630.245 7 100148434.45007  25520630.505 8 102760990.38608
E33  24260674.786 7 127490691.31907  24260675.195 7  95204105.20407  24260675.458 8  97687682.57408
G02  22600824.377 6 118768137.76606  22600823.125 3  92546576.05803
G05  20578703.853 6 108141935.60406  20578704.659 3  84266374.31003  20578704.053 6  84266360.30906
G12  24556019.855 6 129042917.70906  24556020.210 3 100552782.52803  24556033.956 6 100552970.65406
G13  24844187.683 6 130557079.41406  24844220.278 1 101732926.60001
G15  24925127.375 6 130982484.04806  24925135.779 3 102064251.29503  24925137.468 6 102064262.31506
G25  22140694.036 8 116350138.34908  22140698.070 5  90662458.70805  22140697.880 7  90662454.70407
G29  20610903.491 7 108311031.43207  20610903.887 6  84398206.49906  20610903.960 7  84398205.49007
J02  43752805.988 6 229922550.34906
R02  20650545.798 7 110195269.19707  20650551.695 7  85707453.72207
R03  22732022.627 7 121686420.49007  22732032.454 7  94644940.86207
R09  23340724.132 6 124638166.56606  23340728.813 6  96940821.68606
R15  22763072.979 6 121638973.02506  22763079.700 6  94608100.28806
R17  20023524.390 7 107149926.71207  20023529.089 6  83338847.93906
R18  20609378.684 7 110014269.10207  20609393.648 5
> 2022 08 16 16 27  0.0000000  0 24
C20  24403470.138 7 127075373.10207
C27  25336629.483 3
C29  23065041.644 6 120105723.33106
C30  21877572.594 8 113922259.85308
C32  23138809.048 7 120489850.65307
E12  24225310.439 7 127304861.94507  24225309.725 7  95065316.30207  24225308.938 7  97545275.21607
E19  29040723.119 5                  29040725.307 5 113962046.77305  29040727.648 6 116934973.79606
E24  25101542.113 5 131909488.82605  25101541.700 7  98503842.00807  25101541.832 7 101073503.60207
E31  25521164.037 6 134114621.97706  25521169.396 7 100150550.26107  25521169.704 8 102763161.39908
E33  24260952.118 7 127492149.16207  24260952.575 7  95205193.84707  24260952.920 8  97688799.62608
G02  22601258.638 6 118770417.62406  22601257.074 3  92548352.56203
G05  20578795.781 6 108142418.90006  20578796.524 3  84266750.90603  20578795.845 6  84266736.91606
G12  24556823.012 6 129047134.53006  24556822.799 3 100556068.36503  24556836.186 6 100556256.45506
G13  24843684.876 5 130554431.84305  24843716.371 1 101730863.48701
G15  24924520.160 6 130979292.94606  24924528.510 3 102061764.72003  24924530.199 6 102061775.75206
G25  22141316.889 8 116353412.18008  22141321.047 5  90665009.74905  22141320.873 6  90665005.74406
G29  20610790.838 7 108310439.74107  20610791.264 6  84397745.44506  20610791.390 7  84397744.44407
J02  43752821.819 6 229922632.65906
R02  20650311.522 7 110194019.24707  20650317.453 7  85706481.53407
R03  22731283.172 7 121682463.09807  22731292.649 7  94641862.88007
R09  23340328.710 6 124636056.27806  23340333.764 6  96939180.32906
R15  22763879.464 6 121643282.11306  22763885.506 6  94611451.77206
R17  20023773.276 7 107151257.86307  20023778.328 6  83339883.28506
R18  20609120.356 7 110012888.98507  20609134.660 5
> 2022 08 16 16 27  1.0000000  0 24
C20  24402914.833 7 127072475.86507
C27  25337168.649 3
C29  23064736.091 6 120104132.12106
C30  21877769.008 8 113923282.73408
C32  23138744.665 7 120489515.55007
E12  24225168.247 7 127304114.03907  24225167.373 7  95064757.79307  24225166.652 7  97544702.13507
E19  29040234.728 5                  29040235.655 4 113960125.70404  29040238.181 6 116933002.59306
E24  25101631.024 5 131909954.36605  25101630.215 7  98504189.64507  25101630.488 7 101073860.31207
E31  25521703.098 6 134117455.09506  25521708.463 7 100152665.88207  25521708.834 8 102765332.20608
E33  24261229.371 7 127493606.59707  24261229.956 7  95206282.19107  24261230.334 8  97689916.36208
G02  22601692.324 6 118772697.08106  22601690.884 3  92550128.75303
G05  20578887.826 6 108142902.37506  20578888.465 3  84267127.63903  20578888.002 6  84267113.63206
G12  24557625.646 6 129051350.84706  24557625.321 3 100559353.79303  24557638.304 6 100559541.86906
G13  24843182.435 5 130551783.87605  24843212.504 1 101728800.16901
G15  24923912.861 6 130976101.27306  24923921.170 3 102059277.70103  24923922.892 6 102059288.74306
G25  22141939.833 8 116356685.87108  22141943.993 5  90667560.67505  22141943.652 6  90667556.64206
G29  20610678.047 7 108309847.94307  20610678.633 6  84397284.30706  20610678.647 7  84397283.29607
J02  43752837.439 6 229922714.40906
R02  20650077.260 7 110192769.55707  20650083.364 7  85705509.55007
R03  22730543.587 7 121678505.33507  22730553.039 7  94638784.62707
R09  23339934.178 6 124633946.12206  23339938.502 6  96937539.07306
R15  22764685.788 6 121647590.83306  22764691.307 6  94614803.00206
R17  20024022.102 7 107152588.76507  20024027.376 6  83340918.43806
R18  20608861.647 7 110011508.58507  20608877.954 4
> 2022 08 16 16 27  2.0000000  0 24
C20  24402359.496 7 127069578.39307
C27  25337705.261 4
C29  23064430.674 6 120102540.63206
C30  21877965.555 8 113924305.45308
C32  23138680.496 7 120489180.57807
E12  24225026.013 7 127303365.84407  24225025.107 7  95064199.08407  24225024.319 7  97544128.85107
E19  29039745.931 5                  29039745.726 5 113958204.26705  29039748.672 6 116931031.08006
E24  25101719.411 5 131910419.89205  25101718.809 7  98504537.29707  25101719.115 7 101074217.02707
E31  25522242.150 6 134120288.02306  25522247.548 7 100154781.38807  25522247.915 8 102767502.90608
E33  24261506.628 7 127495063.72407  24261507.233 7  95207370.31807  24261507.659 8  97691032.86408
G02  22602126.153 6 118774976.23806  22602124.586 3  92551904.72203
G05  20578979.440 6 108143386.07406  20578980.447 3  84267504.55803  20578979.848 6  84267490.53406
G12  24558428.307 6 129055566.75106  24558427.825 3 100562638.90603  24558440.371 6 100562826.97706
G13  24842680.071 5 130549135.52705  24842708.449 1 101726736.62901
G15  24923305.430 6 130972909.11506  24923313.700 3 102056790.31403  24923315.562 6 102056801.33806
G25  22142562.786 8 116359959.49308  22142566.931 5  90670111.54305  22142566.538 6  90670107.53406
G29  20610565.308 7 108309256.11707  20610565.988 6  84396823.14306  20610566.071 7  84396822.13407
J02  43752852.966 6 229922795.68506
R02  20649843.031 7 110191520.23807  20649849.060 7  85704537.85807
R03  22729803.866 7 121674547.32907  22729813.271 7  94635706.17907
R09  23339538.590 6 124631836.15406  23339543.148 6  96935898.03606
R15  22765492.102 6 121651899.35806  22765497.703 6  94618154.07206
R17  20024271.152 7 107153919.52007  20024276.313 6  83341953.44006
R18  20608602.912 7 110010127.98507  20608620.799 5
> 2022 08 16 16 27  3.0000000  0 24
C20  24401803.675 7 127066680.30407
C27  25338243.806 3
C29  23064125.192 6 120100948.52506
C30  21878161.913 8 113925327.67008
C32  23138616.098 7 120488845.38907
E12  24224883.518 7 127302617.04007  24224882.629 7  95063639.92307  24224881.812 7  97543555.10207
E19  29039256.869 4                  29039255.909 5 113956282.28205  29039258.833 6 116929058.95006
E24  25101807.644 5 131910885.19905  25101807.317 7  98504884.76307  25101807.635 7 101074573.55407
E31  25522781.089 6 134123120.41306  25522786.489 7 100156896.49607  25522786.930 8 102769673.19408
E33  24261783.810 7 127496520.21207  24261784.388 7  95208457.94507  24261784.820 8  97692148.86508
G02  22602559.586 6 118777254.68306  22602558.142 2  92553680.12402
G05  20579071.114 6 108143869.70606  20579072.405 3  84267881.40503  20579071.955 6  84267867.36506
G12  24559230.499 7 129059781.92907  24559230.110 3 100565923.46003  24559242.156 6 100566111.53306
G13  24842178.006 5 130546486.50305  24842204.841 1 101724672.42301
G15  24922697.896 6 130969716.11806  24922706.033 3 102054302.26403  24922707.671 6 102054313.28206
G25  22143185.812 8 116363232.70108  22143189.801 5  90672662.09305  22143189.361 6  90672658.08706
G29  20610452.659 7 108308663.93407  20610453.277 6  84396361.70106  20610453.399 7  84396360.68707
J02  43752868.377 6 229922876.18306
R02  20649608.920 7 110190270.95207  20649614.772 7  85703566.18107
R03  22729064.147 7 121670588.73807  22729073.212 7  94632627.28607
R09  23339143.266 6 124629726.15206  23339148.271 6  96934256.91706
R15  22766298.364 6 121656207.34706  22766304.064 6  94621504.71206
R17  20024519.591 7 107155249.78207  20024524.718 6  83342988.07906
R18  20608344.180 7 110008746.80207  20608361.651 5
> 2022 08 16 16 27  4.0000000  0 24
C20  24401247.772 7 127063782.26207
C27  25338782.985 3
C29  23063819.548 6 120099356.40806
C30  21878358.218 8 113926349.96108
C32  23138551.711 7 120488510.59007
E12  24224740.975 7 127301868.22907  24224740.133 7  95063080.74407  24224739.335 7  97542981.33507
E19  29038767.889 5                  29038766.227 5 113954360.18605  29038768.957 6 116927086.73806
E24  25101896.291 5 131911350.79105  25101895.935 7  98505232.44807  25101896.216 8 101074930.31408
E31  25523320.046 6 134125952.93006  25523325.446 7 100159011.67807  25523325.930 8 102771843.55908
E33  24262060.953 7 127497976.62807  24262061.398 7  95209545.53607  24262061.949 8  97693264.82708
G02  22602993.101 6 118779533.09506  22602991.715 3  92555455.50103
G05  20579163.159 6 108144353.78706  20579164.378 3  84268258.59703  20579164.236 6  84268244.59206
G12  24560032.616 7 129063996.94507  24560032.360 3 100569207.88403  24560043.712 6 100569395.95506
G13  24841675.431 5 130543837.39005  24841700.729 1 101722608.15001
G15  24922090.544 6 130966522.86906  24922098.317 3 102051814.01703  24922099.427 6 102051825.05406
G25  22143808.729 8 116366506.10808  22143812.711 5  90675212.79405  22143812.326 6  90675208.77906
G29  20610340.155 7 108308071.99307  20610340.614 6  84395900.44506  20610340.798 7  84395899.43707
J02  43752884.017 6 229922956.50006
R02  20649374.840 7 110189022.32807  20649380.934 7  85702595.03107
R03  22728324.772 7 121666630.19007  22728333.145 7  94629548.43007
R09  23338748.166 6 124627616.64706  23338752.910 6  96932616.17606
R15  22767104.788 6 121660515.39606  22767110.779 6  94624855.41406
R17  20024768.206 7 107156580.16307  20024772.976 6  83344022.83606
R18  20608085.339 7 110007365.66507  20608102.793 5
> 2022 08 16 16 27  5.0000000  0 23
C20  24400691.581 7 127060883.46007
C29  23063513.594 6 120097763.48006
C30  21878554.439 8 113927371.57008
C32  23138487.359 7 120488175.41107
E12  24224598.315 7 127301118.63507  24224597.428 7  95062520.98507  24224596.750 7  97542406.97707
E19  29038278.550 5                  29038276.393 5 113952437.40205  29038278.753 6 116925113.75306
E24  25101984.500 5 131911815.93605  25101984.459 7  98505579.77107  25101984.711 8 101075286.70508
E31  25523858.821 6 134128784.76106  25523864.280 7 100161126.35907  25523864.884 8 102774013.40108
E33  24262337.925 7 127499432.22307  24262338.367 7  95210632.51807  24262338.903 8  97694380.15708
G02  22603426.194 6 118781810.61806  22603425.127 3  92557230.18503
G05  20579254.919 6 108144837.58106  20579256.368 3  84268635.58103  20579256.422 6  84268621.58006
G12  24560834.392 7 129068211.04807  24560834.408 3 100572491.60103  24560845.352 6 100572679.67806
G13  24841172.360 5 130541187.47105  24841196.379 1 101720543.23401
G15  24921483.075 6 130963328.60406  24921490.499 3 102049324.99003  24921491.244 6 102049336.04706
G25  22144431.651 7 116369778.94407  22144435.537 5  90677763.04905  22144435.315 6  90677759.02906
G29  20610227.547 7 108307479.50607  20610227.840 6  84395438.76506  20610228.059 7  84395437.75707
J02  43752899.056 6 229923035.83906
R02  20649140.888 7 110187773.58307  20649146.974 7  85701623.77807
R03  22727585.386 7 121662670.86907  22727592.955 7  94626468.95807
R09  23338352.422 6 124625506.81806  23338358.111 6  96930975.21706
R15  22767910.506 6 121664822.67606  22767917.481 6  94628205.53206
R17  20025016.941 7 107157909.87107  20025020.814 6  83345057.04606
R18  20607826.557 7 110005983.82107  20607843.739 5
> 2022 08 16 16 27  6.0000000  0 23
C20  24400134.165 7 127057984.50007
C29  23063207.548 6 120096170.37406
C30  21878750.623 8 113928393.12608
C32  23138423.010 7 120487840.46707
E12  24224455.607 7 127300368.87207  24224454.730 7  95061961.09007  24224454.150 7  97541832.47807
E19  29037790.057 5                  29037786.597 5 113950514.36705  29037788.673 6 116923140.54706
E24  25102072.926 5 131912281.21805  25102073.029 7  98505927.22607  25102073.256 8 101075643.20908
E31  25524397.631 6 134131616.52806  25524403.095 7 100163240.97507  25524403.774 8 102776183.18508
E33  24262614.864 7 127500887.61707  24262615.374 7  95211719.32707  24262615.822 8  97695495.32908
G02  22603858.975 6 118784087.94406  22603858.507 3  92559004.72403
G05  20579347.035 6 108145321.73406  20579348.385 3  84269012.85203  20579348.728 6  84268998.86206
G12  24561636.065 7 129072424.86007  24561636.456 4 100575775.09104  24561646.589 6 100575963.13906
G13  24840668.905 6 130538537.27306  24840692.109 1 101718478.13701
G15  24920875.328 6 130960133.97506  24920882.666 3 102046835.67103  24920883.136 6 102046846.71206
G25  22145054.468 7 116373051.81207  22145058.344 5  90680313.33405  22145058.100 6  90680309.32806
G29  20610114.852 7 108306887.11907  20610115.083 6  84394977.16306  20610115.254 7  84394976.15107
J02  43752913.933 6 229923114.83206
R02  20648906.951 7 110186525.35807  20648913.072 7  85700652.92807
R03  22726845.931 7 121658711.38107  22726852.801 7  94623389.34607
R09  23337956.992 6 124623397.34506  23337962.979 6  96929334.50206
R15  22768716.633 6 121669129.85206  22768723.915 6  94631555.54606
R17  20025265.637 7 107159239.55207  20025269.239 6  83346091.23206
R18  20607567.642 7 110004601.90707  20607585.221 5
> 2022 08 16 16 27  7.0000000  0 23
C20  24399576.339 6 127055085.22606
C29  23062901.404 6 120094576.89606
C30  21878946.802 8 113929414.40708
C32  23138358.658 7 120487505.54307
E12  24224312.832 7 127299618.74607  24224311.958 7  95061400.94307  24224311.391 7  97541257.71807
E19  29037300.150 5                  29037296.757 5 113948590.93805  29037298.401 6 116921166.94006
E24  25102161.233 5 131912746.41405  25102161.594 7  98506274.63207  25102161.727 8 101075999.68108
E31  25524936.189 6 134134448.02106  25524941.857 7 100165355.41607  25524942.622 8 102778352.77508
E33  24262891.731 7 127502342.61807  24262892.311 7  95212805.85507  24262892.678 8  97696610.19808
G02  22604291.799 6 118786364.87506  22604291.794 3  92560778.94303
G05  20579439.049 6 108145806.04506  20579440.451 3  84269390.23203  20579440.745 6  84269376.23306
G12  24562437.423 7 129076638.15907  24562438.441 4 100579058.17504  24562447.513 6 100579246.23506
G13  24840165.043 6 130535886.63506  24840187.254 1 101716412.67601
G15  24920267.306 6 130956938.73106  24920274.673 3 102044345.88003  24920274.512 6 102044356.91606
G25  22145677.305 7 116376324.53007  22145681.121 5  90682863.49905  22145681.164 6  90682859.48506
G29  20610002.137 7 108306294.60307  20610002.305 6  84394515.46106  20610002.467 7  84394514.45507
J02  43752928.806 6 229923193.30406
R02  20648673.018 7 110185277.44907  20648679.153 7  85699682.33507
R03  22726106.409 7 121654751.55807  22726112.737 7  94620309.48707
R09  23337562.072 6 124621288.02806  23337568.181 6  96927693.91206
R15  22769522.483 6 121673436.68506  22769530.195 6  94634905.32306
R17  20025514.297 7 107160568.99907  20025517.015 6  83347125.24106
R18  20607308.702 7 110003219.66607  20607325.066 5
> 2022 08 16 16 27  8.0000000  0 24
C20  24399018.088 6 127052185.87806
C29  23062595.483 6 120092983.32306
C30  21879142.903 8 113930435.71108
C32  23138294.351 7 120487170.93107
E12  24224170.037 7 127298868.53707  24224169.187 7  95060840.71507  24224168.601 7  97540682.88307
E19  29036810.235 5                  29036806.510 5 113946667.31405  29036808.177 6 116919193.13906
E24  25102249.459 6 131913211.88006  25102250.093 7  98506622.21307  25102250.286 8 101076356.32908
E31  25525474.912 6 134137279.52906  25525480.598 7 100167469.84807  25525481.494 8 102780522.37608
E33  24263168.615 7 127503797.47707  24263169.163 7  95213892.29007  24263169.505 8  97697724.96608
G02  22604724.983 6 118788641.66406  22604724.987 3  92562553.07103
G05  20579531.200 6 108146290.76706  20579532.562 3  84269767.94203  20579533.253 6  84269753.94506
G12  24563239.016 7 129080851.25207  24563240.270 4 100582341.10104  24563248.153 6 100582529.16006
G13  24839661.457 6 130533235.86006  24839682.788 1 101714347.12101
G15  24919659.188 6 130953743.17006  24919666.618 3 102041855.83503  24919666.421 6 102041866.87606
G18  22360743.900 6 117506501.89416
G25  22146300.101 7 116379597.35207  22146303.915 5  90685413.74605  22146304.115 6  90685409.73006
G29  20609889.464 7 108305702.25007  20609889.562 6  84394053.88606  20609889.750 7  84394052.88007
J02  43752943.670 6 229923271.48306
R02  20648439.473 7 110184030.14007  20648445.358 7  85698712.21407
R03  22725367.015 7 121650791.65907  22725372.632 6  94617229.57406
R09  23337167.799 6 124619179.10906  23337173.365 6  96926053.65606
R15  22770328.461 6 121677743.52706  22770336.278 6  94638255.08106
R17  20025762.702 7 107161898.46307  20025765.457 6  83348159.28706
R18  20607050.012 7 110001837.37607  20607064.809 5
> 2022 08 16 16 27  9.0000000  0 24
C20  24398460.315 6 127049286.35906
C29  23062289.424 6 120091389.53106
C30  21879339.026 8 113931456.90308
C32  23138230.084 7 120486836.51707
E12  24224027.264 7 127298118.12007  24224026.398 7  95060280.34807  24224025.813 7  97540107.88707
E19  29036320.105 5                  29036316.162 5 113944743.40805  29036317.769 6 116917219.07106
E24  25102338.011 6 131913677.43706  25102338.644 7  98506969.86907  25102338.854 7 101076713.05107
E31  25526013.789 6 134140110.93906  25526019.290 7 100169584.21407  25526020.305 8 102782691.89108
E33  24263445.435 7 127505252.10007  24263446.034 7  95214978.52307  24263446.271 8  97698839.54208
G02  22605157.935 6 118790918.13406  22605158.135 3  92564326.94303
G05  20579623.591 6 108146775.78306  20579624.785 3  84270145.87503  20579625.450 6  84270131.88606
G12  24564040.489 7 129085063.99607  24564042.050 4 100585623.75804  24564048.485 6 100585811.80006
G13  24839157.313 6 130530584.84106  24839178.161 1 101712281.35201
G15  24919051.045 6 130950547.19306  24919058.504 3 102039365.46503  24919057.909 6 102039376.49206
G18  22360351.032 6 117504436.42106
G25  22146922.937 7 116382870.18207  22146926.722 5  90687963.99805  22146927.059 6  90687959.99206
G29  20609776.609 7 108305109.94107  20609776.823 6  84393592.34506  20609777.149 7  84393591.33707
J02  43752958.426 6 229923349.30206
R02  20648206.133 7 110182783.30407  20648211.681 7  85697742.44007
R03  22724627.689 7 121646831.60907  22724632.776 6  94614149.51506
R09  23336772.757 6 124617070.49806  23336778.568 6  96924413.62306
R15  22771134.169 7 121682050.22407  22771142.245 6  94641604.73106
R17  20026010.949 7 107163227.84707  20026014.011 6  83349193.24006
R18  20606791.229 7 110000454.96607  20606803.894 5
> 2022 08 16 16 27 10.0000000  0 24
C20  24397903.066 6 127046386.21806
C29  23061983.523 6 120089795.10806
C30  21879534.999 8 113932477.56808
C32  23138165.803 7 120486501.87107
E12  24223884.310 7 127297367.07207  24223883.424 7  95059719.49207  24223882.934 7  97539532.40107
E19  29035829.711 5                  29035825.538 5 113942818.96605  29035827.353 6 116915244.41006
E24  25102426.538 6 131914142.69106  25102427.207 7  98507317.29307  25102427.369 7 101077069.54107
E31  25526552.574 6 134142941.83006  25526557.908 7 100171698.16707  25526559.061 8 102784860.99508
E33  24263722.128 7 127506706.04407  24263722.716 7  95216064.25907  24263722.917 8  97699953.59908
G02  22605591.008 6 118793193.93006  22605591.172 3  92566100.27103
G05  20579715.793 6 108147260.68206  20579716.945 3  84270523.72203  20579717.737 6  84270509.74506
G12  24564841.853 7 129089275.97607  24564843.687 4 100588905.81404  24564848.957 6 100589093.87006
G13  24838652.085 5 130527933.09905  24838673.695 1 101710215.10101
G15  24918442.381 6 130947350.33506  24918450.216 3 102036874.40703  24918449.665 6 102036885.45006
G18  22359957.999 6 117502370.37106
G25  22147545.819 7 116386142.58607  22147549.454 5  90690513.91805  22147550.069 6  90690509.90406
G29  20609663.893 7 108304517.24607  20609664.018 6  84393130.50506  20609664.429 7  84393129.50607
J02  43752973.111 6 229923426.30406
R02  20647972.725 7 110181536.48707  20647977.752 7  85696772.69407
R03  22723888.080 7 121642870.93507  22723892.925 6  94611068.99706
R09  23336377.487 6 124614961.75406  23336383.868 6  96922773.47506
R15  22771940.162 7 121686356.33407  22771948.225 6  94644953.93106
R17  20026259.320 7 107164556.74007  20026262.593 6  83350226.81506
R18  20606532.227 7 109999071.99807  20606543.319 5
> 2022 08 16 16 27 11.0000000  0 24
C20  24397346.045 6 127043485.18006
C29  23061677.253 6 120088199.72306
C30  21879730.896 8 113933497.40408
C32  23138101.533 7 120486166.68107
E12  24223741.205 7 127296615.08707  24223740.314 7  95059157.93807  24223739.802 7  97538956.20207
E19  29035338.704 5                  29035334.850 5 113940893.69905  29035336.718 6 116913268.87506
E24  25102514.993 6 131914607.32406  25102515.736 7  98507664.24707  25102515.737 7 101077425.54907
E31  25527091.265 6 134145771.86906  25527096.472 7 100173811.50407  25527097.618 8 102787029.46508
E33  24263998.535 7 127508159.01807  24263999.219 7  95217149.27007  24263999.417 8  97701066.91508
G02  22606024.316 6 118795468.76406  22606024.034 3  92567872.86803
G05  20579808.041 6 108147745.14906  20579808.998 3  84270901.23603  20579809.892 6  84270887.26506
G12  24565643.183 7 129093486.88207  24565645.140 4 100592187.03404  24565649.270 5 100592375.11605
G13  24838146.788 5 130525280.32805  24838168.741 1 101708147.95401
G15  24917833.552 6 130944152.33506  24917841.668 3 102034382.47303  24917841.130 6 102034393.51606
G18  22359564.836 6 117500303.45406
G25  22148168.443 7 116389414.26307  22148172.016 5  90693063.27405  22148172.757 6  90693059.26106
G29  20609550.837 7 108303923.86807  20609551.082 6  84392668.13306  20609551.529 7  84392667.12607
J02  43752987.383 6 229923502.20006
R02  20647739.136 7 110180289.37807  20647744.072 7  85695802.72907
R03  22723147.973 7 121638909.32807  22723152.934 6  94607987.74406
R09  23335982.671 6 124612852.52306  23335988.941 6  96921132.99406
R15  22772746.283 7 121690661.54707  22772753.727 6  94648302.42106
R17  20026507.477 7 107165884.80307  20026510.739 6  83351259.75306
R18  20606272.912 7 109997688.15107  20606282.669 4
> 2022 08 16 16 27 12.0000000  0 24
C20  24396788.939 6 127040583.61106
C29  23061370.870 6 120086603.77206
C30  21879926.563 8 113934516.77908
C32  23138037.272 7 120485831.33007
E12  24223598.001 7 127295862.53007  24223597.087 7  95058595.97307  24223596.610 7  97538379.57807
E19  29034847.183 5                  29034844.144 5 113938967.87205  29034845.923 6 116911292.81706
E24  25102603.503 6 131915071.67906  25102604.140 7  98508011.01907  25102604.062 7 101077781.36407
E31  25527629.764 6 134148601.41606  25527634.925 7 100175924.49307  25527636.019 8 102789197.57008
E33  24264274.760 7 127509611.39307  24264275.644 7  95218233.82807  24264275.818 8  97702179.77208
G02  22606457.116 6 118797743.00106  22606456.828 3  92569645.01203
G05  20579900.098 6 108148229.58706  20579901.019 3  84271278.72703  20579901.974 6  84271264.72406
G12  24566444.421 7 129097697.11607  24566446.401 4 100595467.72804  24566449.966 5 100595655.78005
G13  24837641.317 5 130522626.96905  24837663.676 1 101706080.39601
G15  24917224.871 6 130940953.54006  24917232.950 3 102031889.91503  24917232.228 6 102031900.94106
G18  22359171.294 6 117498236.03706
G25  22148791.098 7 116392685.57807  22148794.483 5  90695612.35005  22148795.350 6  90695608.33006
G29  20609437.824 7 108303330.17107  20609438.080 6  84392205.51706  20609438.573 7  84392204.51507
J02  43753001.856 6 229923577.33906
R02  20647505.479 7 110179042.32707  20647510.388 7  85694832.80107
R03  22722407.669 7 121634947.17207  22722412.803 6  94604906.08106
R09  23335587.563 6 124610743.24106  23335593.722 6  96919492.45206
R15  22773552.171 7 121694966.24607  22773559.195 6  94651650.51106
R17  20026755.687 7 107167212.41407  20026759.166 6  83352292.35206
R18  20606013.630 7 109996303.75607  20606023.301 5
> 2022 08 16 16 27 13.0000000  0 24
C20  24396232.097 7 127037682.40607
C29  23061064.474 6 120085008.11806
C30  21880122.372 8 113935536.57308
C32  23137973.061 7 120485496.69607
E12  24223454.864 7 127295110.26407  24223453.936 7  95058034.21307  24223453.348 7  97537803.15507
E19  29034354.992 5                  29034353.317 5 113937042.18205  29034355.131 6 116909316.91706
E24  25102691.820 6 131915536.60406  25102692.631 7  98508358.20907  25102692.512 8 101078137.62008
E31  25528168.481 6 134151431.40206  25528173.489 7 100178037.79307  25528174.514 8 102791366.01308
E33  24264551.118 7 127511064.02407  24264552.065 7  95219318.59107  24264552.296 8  97703292.82808
G02  22606890.035 6 118800017.47006  22606889.677 3  92571417.33903
G05  20579992.124 6 108148714.84906  20579993.229 3  84271656.84503  20579994.476 6  84271642.80906
G12  24567245.710 7 129101907.56607  24567247.756 4 100598748.58504  24567250.624 5 100598936.58005
G13  24837135.121 6 130519973.90106  24837159.223 1 101704013.11601
G15  24916616.249 6 130937754.83206  24916624.282 3 102029397.42103  24916623.369 6 102029408.48206
G18  22358777.880 6 117496168.98306                                  22358776.647 6  91555447.47216
G25  22149413.908 7 116395957.40607  22149417.054 5  90698161.82305  22149417.768 6  90698157.82406
G29  20609325.083 7 108302737.06207  20609325.203 6  84391743.35006  20609325.747 7  84391742.33307
J02  43753016.140 6 229923652.61606
R02  20647272.019 7 110177796.24107  20647277.086 7  85693863.59207
R03  22721667.482 7 121630985.35507  22721673.112 6  94601824.68306
R09  23335192.987 6 124608634.85806  23335198.577 5  96917852.51605
R15  22774358.047 7 121699271.34407  22774364.349 6  94654998.88306
R17  20027003.739 7 107168540.48807  20027007.447 6  83353325.28806
R18  20605754.176 7 109994919.76407  20605763.620 5
> 2022 08 16 16 27 14.0000000  0 25
C20  24395675.657 7 127034780.82907
C27  25344145.162 4
C29  23060757.997 6 120083412.10006
C30  21880318.130 8 113936556.12108
C32  23137908.702 7 120485162.11907
E12  24223311.639 7 127294357.67907  24223310.673 7  95057472.22807  24223310.119 7  97537226.50407
E19  29033862.872 5                  29033862.358 5 113935116.08705  29033864.396 6 116907340.58506
E24  25102780.116 6 131916001.61806  25102781.142 7  98508705.44407  25102780.992 8 101078493.91708
E31  25528707.062 6 134154261.14906  25528712.053 7 100180150.91207  25528712.953 8 102793534.25308
E33  24264827.389 7 127512516.28707  24264828.258 7  95220403.08607  24264828.712 8  97704405.60608
G02  22607322.555 6 118802291.53206  22607322.445 3  92573189.32603
G05  20580084.308 6 108149200.23206  20580085.586 3  84272035.05303  20580086.878 6  84272021.04906
G12  24568046.627 7 129106117.47807  24568048.991 4 100602029.01504  24568051.359 5 100602217.03405
G13  24836629.073 6 130517320.35606  24836654.386 1 101701945.38501
G15  24916007.566 6 130934555.56506  24916015.574 3 102026904.49203  24916014.698 6 102026915.53306
G18  22358384.789 6 117494101.67606                                  22358383.443 6  91553836.59406
G25  22150036.519 7 116399229.11407  22150039.598 5  90700711.20505  22150040.483 6  90700707.19606
G29  20609212.211 7 108302143.83607  20609212.290 6  84391281.09206  20609212.837 8  84391280.08308
J02  43753030.408 6 229923727.37606
R02  20647038.331 7 110176550.42207  20647043.416 7  85692894.63607
R03  22720927.304 7 121627023.24807  22720933.225 6  94598743.04806
R09  23334799.095 5 124606526.59105  23334803.887 6  96916212.78606
R15  22775163.476 6 121703576.08806  22775169.880 6  94658347.01906
R17  20027251.777 7 107169868.36507  20027255.761 6  83354358.08606
R18  20605494.436 7 109993535.51607  20605502.263 5
> 2022 08 16 16 27 15.0000000  0 25
C20  24395119.164 7 127031878.81807
C27  25344682.146 4
C29  23060451.464 6 120081815.58306
C30  21880513.840 8 113937575.28808
C32  23137844.426 7 120484827.45007
E12  24223168.358 7 127293604.60707  24223167.308 7  95056909.85807  24223166.810 7  97536649.48207
E19  29033371.266 5                  29033371.236 5 113933189.52605  29033373.522 6 116905363.78806
E24  25102868.382 6 131916466.41406  25102869.651 7  98509052.54207  25102869.442 8 101078850.06908
E31  25529245.585 6 134157090.49906  25529250.470 7 100182263.75107  25529251.347 8 102795702.20508
E33  24265103.648 7 127513968.02507  24265104.376 7  95221487.17207  24265105.007 8  97705517.97708
G02  22607755.422 6 118804565.07006  22607755.097 3  92574960.90503
G05  20580176.673 6 108149685.66706  20580177.876 3  84272413.30303  20580179.092 6  84272399.29706
G12  24568847.506 7 129110326.78207  24568850.118 4 100605308.97604  24568851.741 5 100605496.97605
G13  24836123.068 5 130514666.29305  24836149.366 1 101699877.27501
G15  24915398.822 6 130931355.57806  24915406.731 3 102024411.00503  24915406.258 6 102024422.04106
G18  22357991.581 6 117492033.95906  22357992.753 3  91552242.36413  22357989.784 6  91552225.39906
G25  22150659.279 7 116402500.53307  22150662.097 5  90703260.35705  22150662.848 6  90703256.36206
G29  20609099.342 7 108301550.38407  20609099.323 6  84390818.66006  20609099.903 8  84390817.65208
J02  43753044.471 6 229923801.47106
R02  20646804.894 7 110175304.73507  20646809.702 7  85691925.78307
R03  22720186.850 7 121623060.65907  22720193.025 6  94595661.03606
R09  23334404.395 5 124604418.31805  23334408.848 5  96914573.02705
R15  22775969.149 6 121707880.40606  22775975.489 6  94661694.81506
R17  20027499.881 7 107171195.89407  20027504.168 6  83355390.60306
R18  20605234.573 7 109992150.82807  20605242.261 5  85549480.72215
> 2022 08 16 16 27 16.0000000  0 25
C20  24394562.424 7 127028976.34107
C27  25345218.879 4
C29  23060144.766 6 120080218.59506
C30  21880709.422 8 113938594.04808
C32  23137780.265 7 120484492.68007
E12  24223024.935 7 127292851.03207  24223023.907 7  95056347.13107  24223023.415 7  97536072.06507
E19  29032879.987 5                  29032880.417 5 113931262.49005  29032882.517 6 116903386.48806
E24  25102956.712 6 131916931.05506  25102958.146 7  98509399.50707  25102957.840 8 101079206.08108
E31  25529783.912 6 134159919.46506  25529788.844 7 100184376.28007  25529789.655 8 102797869.85008
E33  24265379.788 7 127515419.22907  24265380.462 7  95222570.86607  24265381.213 8  97706629.93408
G02  22608187.838 6 118806838.05806  22608187.650 3  92576732.06403
G05  20580269.052 6 108150171.09906  20580270.139 3  84272791.55203  20580271.642 6  84272777.55806
G12  24569648.158 7 129114535.47107  24569651.079 4 100608588.46504  24569651.843 5 100608776.50805
G13  24835616.947 5 130512011.65905  24835644.367 1 101697808.69201
G15  24914789.822 6 130928154.88006  24914797.754 3 102021916.95203  24914797.655 6 102021927.98706
G18  22357597.847 6 117489965.80906  22357599.197 3  91550630.82303  22357596.094 6  91550613.85506
G25  22151281.852 7 116405771.67407  22151284.533 5  90705809.29505  22151285.205 6  90705805.28706
G29  20608986.438 7 108300956.68507  20608986.312 6  84390356.03706  20608986.891 8  84390355.03208
J02  43753058.078 6 229923874.89306
R02  20646571.291 7 110174059.20407  20646576.432 7  85690957.03707
R03  22719446.272 7 121619097.58907  22719452.729 6  94592578.65506
R09  23334009.344 5 124602310.03005  23334013.954 6  96912933.27806
R15  22776774.528 6 121712184.27306  22776780.722 6  94665042.27206
R17  20027747.726 7 107172523.02907  20027752.142 6  83356422.82706
R18  20604974.878 7 109990765.67307  20604982.043 5  85548403.37705
> 2022 08 16 16 27 17.0000000  0 25
C20  24394005.636 7 127026073.77907
C27  25345756.172 4
C29  23059838.156 6 120078621.45606
C30  21880905.115 8 113939612.81108
C32  23137716.029 7 120484158.19707
E12  24222881.467 7 127292097.35307  24222880.466 7  95055784.32107  24222879.964 7  97535494.56807
E19  29032388.363 5                  29032389.489 5 113929335.27805  29032391.344 6 116901408.96406
E24  25103045.268 6 131917395.90406  25103046.619 7  98509746.62507  25103046.257 8 101079562.25208
E31  25530322.310 6 134162748.43406  25530327.184 7 100186488.81307  25530327.961 8 102800037.48408
E33  24265655.894 7 127516870.28507  24265656.593 7  95223654.44907  24265657.355 8  97707741.78408
G02  22608620.132 6 118809110.91206  22608620.173 3  92578503.11803
G05  20580361.718 6 108150656.94306  20580362.504 3  84273170.13603  20580363.995 6  84273156.15006
G12  24570448.880 7 129118743.90807  24570452.018 4 100611867.75704  24570452.268 5 100612055.81005
G13  24835111.163 5 130509356.84505  24835139.123 1 101695740.00101
G15  24914180.636 6 130924953.84106  24914188.643 3 102019422.64403  24914188.778 6 102019433.66906
G18  22357204.366 6 117487897.62506  22357205.578 3  91549019.25603  22357202.748 6  91549002.27906
G25  22151904.559 7 116409042.89807  22151906.996 5  90708358.29705  22151907.767 6  90708354.28106
G29  20608873.551 7 108300363.12407  20608873.327 6  84389893.52206  20608873.921 8  84389892.51608
J02  43753072.295 6 229923948.03306
R02  20646337.925 7 110172814.24807  20646343.252 7  85689988.74007
R03  22718705.539 7 121615134.42407  22718712.467 6  94589496.18406
R09  23333614.132 5 124600202.22205  23333619.943 6  96911293.83206
R15  22777579.707 6 121716488.09106  22777586.033 6  94668389.69206
R17  20027995.681 7 107173850.17907  20028000.514 6  83357455.05506
R18  20604715.359 7 109989380.52007  20604721.714 5  85547326.04005
> 2022 08 16 16 27 18.0000000  0 25
C20  24393448.396 7 127023170.94807
C27  25346294.269 4
C29  23059531.405 6 120077024.01506
C30  21881100.722 8 113940631.35208
C32  23137651.829 7 120483823.80407
E12  24222738.058 7 127291343.34607  24222737.023 7  95055221.25307  24222736.482 7  97534916.82307
E19  29031897.236 5                  29031898.408 5 113927407.68405  29031900.160 6 116899431.10706
E24  25103133.781 6 131917860.73306  25103135.039 7  98510093.72907  25103134.722 8 101079918.41408
E31  25530860.771 6 134165577.15806  25530865.397 7 100188601.17907  25530866.239 8 102802204.95808
E33  24265931.954 7 127518320.96707  24265932.608 7  95224737.73807  24265933.421 8  97708853.34608
G02  22609052.514 6 118811383.35806  22609052.556 3  92580273.85603
G05  20580454.152 6 108151142.96906  20580454.964 3  84273548.85703  20580456.412 6  84273534.87406
G12  24571249.650 7 129122951.88907  24571252.819 4 100615146.70004  24571253.296 5 100615334.73405
G13  24834605.192 5 130506701.68105  24834633.906 1 101693671.07701
G15  24913571.603 6 130921752.26206  24913579.362 3 102016927.90503  24913579.359 6 102016938.93206
G18  22356810.536 6 117485829.17706  22356811.923 3  91547407.48403  22356809.009 6  91547390.50406
G25  22152527.255 7 116412314.00707  22152529.437 5  90710907.21105  22152530.182 6  90710903.21106
G29  20608760.559 7 108299769.49407  20608760.338 6  84389430.95406  20608760.876 8  84389429.94708
J02  43753086.143 6 229924020.65806
R02  20646104.577 7 110171569.64307  20646109.967 7  85689020.71607
R03  22717964.780 7 121611170.98307  22717972.211 6  94586413.51306
R09  23333220.384 5 124598094.53705  23333224.919 6  96909654.55306
R15  22778384.541 6 121720791.60906  22778391.250 6  94671736.86706
R17  20028243.767 7 107175177.13207  20028248.479 6  83358487.13106
R18  20604455.820 7 109987995.08507  20604462.093 5  85546248.48005
> 2022 08 16 16 27 19.0000000  0 24
C20  24392890.977 7 127020267.86707
C27  25346831.896 4
C29  23059224.263 6 120075426.26506
C30  21881296.370 8 113941649.72008
C32  23137587.676 7 120483489.52007
E12  24222594.568 7 127290589.06607  24222593.510 7  95054658.00307  24222592.932 7  97534338.87607
E19  29031406.064 5                  29031407.058 5 113925479.78005  29031408.885 6 116897452.91706
E24  25103222.229 6 131918325.59906  25103223.461 7  98510440.87907  25103223.179 8 101080274.60908
E31  25531399.130 6 134168405.72906  25531403.626 7 100190713.42107  25531404.516 8 102804372.29508
E33  24266207.986 7 127519771.34207  24266208.648 7  95225820.81807  24266209.409 8  97709964.67308
G02  22609485.024 6 118813655.49106  22609484.899 3  92582044.34403
G05  20580546.642 6 108151629.22606  20580547.419 3  84273927.75603  20580548.954 6  84273913.77506
G12  24572050.383 7 129127159.47307  24572053.592 4 100618425.33704  24572054.688 5 100618613.38605
G15  24912962.430 6 130918550.17706  24912970.054 3 102014432.77503  24912969.987 6 102014443.80406
G18  22356416.682 6 117483760.52006  22356418.259 3  91545795.55303  22356414.919 6  91545778.58206
G25  22153149.828 7 116415585.05407  22153151.869 5  90713456.07805  22153152.330 6  90713452.06506
G29  20608647.563 7 108299175.84007  20608647.340 6  84388968.36306  20608647.850 8  84388967.36108
J02  43753099.899 6 229924092.82506
R02  20645871.221 7 110170325.44707  20645876.731 7  85688053.01507
R03  22717224.135 7 121607207.29307  22717232.720 6  94583330.67006
R09  23332826.120 5 124595987.11105  23332830.301 6  96908015.43506
R15  22779189.827 6 121725094.92006  22779196.913 6  94675083.89206
R17  20028491.756 7 107176503.93707  20028496.572 6  83359519.09106
R18  20604196.325 7 109986609.41807  20604200.970 5  85545170.73405
> 2022 08 16 16 27 20.0000000  0 25
C20  24392333.403 7 127017364.40807
C27  25347368.053 4
C29  23058917.380 6 120073828.13006
C30  21881491.920 8 113942667.79308
C32  23137523.478 7 120483155.24107
E12  24222450.878 7 127289834.39607  24222449.878 7  95054094.44707  24222449.299 7  97533760.61607
E19  29030914.870 5                  29030915.553 5 113923551.45605  29030917.487 6 116895474.28006
E24  25103310.315 6 131918790.39406  25103311.897 7  98510787.95007  25103311.632 8 101080630.74408
E31  25531937.512 6 134171233.98106  25531941.794 7 100192825.43307  25531942.780 8 102806539.40408
E33  24266483.799 7 127521221.28907  24266484.590 7  95226903.57207  24266485.368 8  97711075.66508
G02  22609917.375 6 118815927.15506  22609917.046 3  92583814.46703
G05  20580639.385 6 108152115.61206  20580639.901 3  84274306.75303  20580641.234 6  84274292.76106
G12  24572850.870 7 129131366.51607  24572854.241 4 100621703.55104  24572855.612 5 100621891.60905
G15  24912353.096 6 130915347.47406  24912360.693 3 102011937.17603  24912360.819 6 102011948.19906
G18  22356022.867 6 117481691.54306  22356024.511 3  91544183.37603  22356021.372 6  91544166.40206
G23  25549902.894 6 134265646.32316
G25  22153772.308 7 116418855.90507  22153774.248 5  90716004.79005  22153774.644 6  90716000.78906
G29  20608534.658 7 108298582.03507  20608534.320 6  84388505.66006  20608534.764 8  84388504.65808
J02  43753113.618 6 229924164.42706
R02  20645637.991 7 110169081.54407  20645643.468 7  85687085.53907
R03  22716483.262 7 121603243.21507  22716492.486 6  94580247.51506
R09  23332431.019 5 124593879.75205  23332435.455 6  96906376.41106
R15  22779994.635 6 121729397.88506  22780002.290 6  94678430.63706
R17  20028739.756 7 107177830.48307  20028744.333 6  83360550.84006
R18  20603936.624 7 109985223.44707  20603942.028 5  85544092.78605
